[
  {
    "place": {
      "name": "Winnipeg",
      "placeType": {"code": 7, "name": "Town"},
      "url": "http://where.yahooapis.com/v1/place/2972",
      "parentid": 23424775,
      "country": "Canada",
      "woeid": 2972,
      "countryCode": "CA"
    },
    "geo": {
      "formatted_address": "Winnipeg, MB, Canada",
      "geometry": {
        "location": {"lat": 49.895136, "lng": -97.13837439999999},
        "viewport": {
          "northeast": {"lat": 49.9938741, "lng": -96.9552281},
          "southwest": {"lat": 49.71377, "lng": -97.349222}
        }
      },
      "icon": "https://maps.gstatic.com/mapfiles/place_api/icons/geocode-71.png",
      "name": "Winnipeg",
      "photos": [
        {
          "height": 1080,
          "html_attributions": [
            "<a href=\"https://maps.google.com/maps/contrib/118411557993284370914\">Mac Luu Ha</a>"
          ],
          "photo_reference": "CmRaAAAAilRwD4ghnxWE26MIyEtbZ6GwCBpKdKbgTRgVpzfTJpROsnpX-uw19oAmb5fSe8ocTkBaFOjkGal8rdtwqPHuvAFzsfND4T8y93ELiroX8sYYFTsTxCUcKPWzwvG6k_6FEhAWI9S_fLNZQSvpl3oZCO1dGhRLxesBwujSIRR9EXkA9FVPEAvtWw",
          "width": 1920
        }
      ],
      "place_id": "ChIJESsa-ftz6lIRZMq5xvoaKis",
      "reference": "ChIJESsa-ftz6lIRZMq5xvoaKis",
      "types": ["locality", "political"]
    }
  },
  {
    "place": {
      "name": "Ottawa",
      "placeType": {"code": 7, "name": "Town"},
      "url": "http://where.yahooapis.com/v1/place/3369",
      "parentid": 23424775,
      "country": "Canada",
      "woeid": 3369,
      "countryCode": "CA"
    },
    "geo": {
      "formatted_address": "Ottawa, ON, Canada",
      "geometry": {
        "location": {"lat": 45.4215296, "lng": -75.69719309999999},
        "viewport": {
          "northeast": {"lat": 45.5375801, "lng": -75.2465979},
          "southwest": {"lat": 44.962733, "lng": -76.35391589999999}
        }
      },
      "icon": "https://maps.gstatic.com/mapfiles/place_api/icons/geocode-71.png",
      "name": "Ottawa",
      "photos": [
        {
          "height": 3240,
          "html_attributions": [
            "<a href=\"https://maps.google.com/maps/contrib/103865588808653771587\">jose antonio hernandez gordo</a>"
          ],
          "photo_reference": "CmRaAAAAwmD2VR1U9uLc65RSLichKmxQXIr47t-MxkI6RWOTO0Y0UuFbkOAnA5nm7fx2Y_21JAPCDievEwKPHNrMlASCQuRF5IZKDMJ8j_I5bk2KewhNPm6N3dkOC89pGt5q22UDEhATfb-_m0QSEkAToeVQxSAvGhTIakjh3bwY2kP98r3-KKAS-1MyQg",
          "width": 4320
        }
      ],
      "place_id": "ChIJrxNRX7IFzkwR7RXdMeFRaoo",
      "reference": "ChIJrxNRX7IFzkwR7RXdMeFRaoo",
      "types": ["locality", "political"]
    }
  },
  {
    "place": {
      "name": "Quebec",
      "placeType": {"code": 7, "name": "Town"},
      "url": "http://where.yahooapis.com/v1/place/3444",
      "parentid": 23424775,
      "country": "Canada",
      "woeid": 3444,
      "countryCode": "CA"
    },
    "geo": {
      "formatted_address": "Quebec City, QC, Canada",
      "geometry": {
        "location": {
          "lat": 46.8138783,
          "lng": -71.2079809
        },
        "viewport": {
          "northeast": {
            "lat": 46.9819379,
            "lng": -71.13394
          },
          "southwest": {
            "lat": 46.7307989,
            "lng": -71.54944499999999
          }
        }
      },
      "icon": "https://maps.gstatic.com/mapfiles/place_api/icons/geocode-71.png",
      "name": "Quebec City",
      "photos": [
        {
          "height": 1000,
          "html_attributions": [
            "<a href=\"https://maps.google.com/maps/contrib/113482343908983147932\">Randolfo Santos</a>"
          ],
          "photo_reference": "CmRaAAAAydgYSuBAuYKKw9FMbml4t2v4hLWbGVr5Z6BCcS7JPRrRkbHIlhJEHK4KNbgvUjA3jHRtQQJ26gcIDYKD0ag1ixToR7Lqz5fjyW28OnbUVVvLMyWSnzqIZycMvVn1_1hqEhAGgp-CZVNdJcdN9kqI16JqGhQlYVjv2jTgjiotgZh2Dl7Sl8F8tQ",
          "width": 667
        }
      ],
      "place_id": "ChIJk4jbBYqWuEwRAzro8GMtxY8",
      "reference": "ChIJk4jbBYqWuEwRAzro8GMtxY8",
      "types": ["locality", "political"]
    }
  },
  {
    "place": {
      "name": "Montreal",
      "placeType": {"code": 7, "name": "Town"},
      "url": "http://where.yahooapis.com/v1/place/3534",
      "parentid": 23424775,
      "country": "Canada",
      "woeid": 3534,
      "countryCode": "CA"
    },
    "geo": {
      "formatted_address": "Montreal, QC, Canada",
      "geometry": {
        "location": {"lat": 45.5016889, "lng": -73.567256},
        "viewport": {
          "northeast": {"lat": 45.7058381, "lng": -73.47426},
          "southwest": {"lat": 45.410246, "lng": -73.986345}
        }
      },
      "icon": "https://maps.gstatic.com/mapfiles/place_api/icons/geocode-71.png",
      "name": "Montreal",
      "photos": [
        {
          "height": 415,
          "html_attributions": [
            "<a href=\"https://maps.google.com/maps/contrib/111078131220119896341\">marcos machado</a>"
          ],
          "photo_reference": "CmRaAAAAbtnXCtBvT6glEfHkkHIcvOhqdoN9-IDuMeeill1cbYoT9qbG23SvTHvDYTYHv7WbYgB8b6OQvtuZ6cL1EeEaKj-sLZGeMEoQ0qApEdo5cJYqVwz4HVzJYpZfzLxvAMylEhBH2cFV-sUZ-WzaxfAQ5axhGhSlHw3qPpUcmh5UveQ5c4qVf2T6ig",
          "width": 739
        }
      ],
      "place_id": "ChIJDbdkHFQayUwR7-8fITgxTmU",
      "reference": "ChIJDbdkHFQayUwR7-8fITgxTmU",
      "types": ["locality", "political"]
    }
  },
  {
    "place": {
      "name": "Toronto",
      "placeType": {"code": 7, "name": "Town"},
      "url": "http://where.yahooapis.com/v1/place/4118",
      "parentid": 23424775,
      "country": "Canada",
      "woeid": 4118,
      "countryCode": "CA"
    },
    "geo": {
      "formatted_address": "Toronto, ON, Canada",
      "geometry": {
        "location": {
          "lat": 43.653226,
          "lng": -79.3831843
        },
        "viewport": {
          "northeast": {
            "lat": 43.8554579,
            "lng": -79.1168971
          },
          "southwest": {
            "lat": 43.5810245,
            "lng": -79.639219
          }
        }
      },
      "icon": "https://maps.gstatic.com/mapfiles/place_api/icons/geocode-71.png",
      "id": "9cdc0b86ce6052ab269593184e7762372e698584",
      "name": "Toronto",
      "photos": [
        {
          "height": 2025,
          "html_attributions": [
            "<a href=\"https://maps.google.com/maps/contrib/105848445411179045247\">Subash Adigal</a>"
          ],
          "photo_reference": "CmRaAAAArju9Rm_sDhtY1bETrTWDycfgfCCuvBN8Ab7ffFvegdDokMak8xyXxU58cH_dHml5AomAmu_TqpRKmoY_Nep7jQSxlwGqfHQwLKfeCOCsU3N6-mr7bzGWEosxvhoWxtF4EhDzyk2V1r_Is8_HWfc7MHXtGhQGtqGbRRmEIt3-ts29H07ED_eOyA",
          "width": 3354
        }
      ],
      "place_id": "ChIJpTvG15DL1IkRd8S0KlBVNTI",
      "reference": "ChIJpTvG15DL1IkRd8S0KlBVNTI",
      "types": ["locality", "political"]
    }
  },
  {
    "place": {
      "name": "Edmonton",
      "placeType": {"code": 7, "name": "Town"},
      "url": "http://where.yahooapis.com/v1/place/8676",
      "parentid": 23424775,
      "country": "Canada",
      "woeid": 8676,
      "countryCode": "CA"
    },
    "geo": {
      "formatted_address": "Toronto, ON, Canada",
      "geometry": {
        "location": {"lat": 43.653226, "lng": -79.3831843},
        "viewport": {
          "northeast": {"lat": 43.8554579, "lng": -79.1168971},
          "southwest": {"lat": 43.5810245, "lng": -79.639219}
        }
      },
      "icon": "https://maps.gstatic.com/mapfiles/place_api/icons/geocode-71.png",
      "name": "Toronto",
      "photos": [
        {
          "height": 2025,
          "html_attributions": [
            "<a href=\"https://maps.google.com/maps/contrib/105848445411179045247\">Subash Adigal</a>"
          ],
          "photo_reference": "CmRaAAAAbuU33MJSLEjFK7LAuWsnkQWlt9Gl2-8Bnmqe-esnjD__XPPAx9eAsJU55L5ydJijyJY7dSVP303RPe0sKrP1m_UvynvdjkHKQf-L7XtyOpZjt2oZ3GobRTzWdqJXJv1jEhAkdwcZcU0BcPO9sO75WJeFGhTezMpSUQJSlVbJY1zndpt779d8bw",
          "width": 3354
        }
      ],
      "place_id": "ChIJpTvG15DL1IkRd8S0KlBVNTI",
      "reference": "ChIJpTvG15DL1IkRd8S0KlBVNTI",
      "types": ["locality", "political"]
    }
  },
  {
    "place": {
      "name": "Calgary",
      "placeType": {"code": 7, "name": "Town"},
      "url": "http://where.yahooapis.com/v1/place/8775",
      "parentid": 23424775,
      "country": "Canada",
      "woeid": 8775,
      "countryCode": "CA"
    },
    "geo": {
      "formatted_address": "Edmonton, AB, Canada",
      "geometry": {
        "location": {"lat": 53.5461245, "lng": -113.4938229},
        "viewport": {
          "northeast": {"lat": 53.7159857, "lng": -113.2716433},
          "southwest": {"lat": 53.395603, "lng": -113.7138017}
        }
      },
      "icon": "https://maps.gstatic.com/mapfiles/place_api/icons/geocode-71.png",
      "id": "c700141550008fa06f546762bc7f002e9ea101c7",
      "name": "Edmonton",
      "photos": [
        {
          "height": 1350,
          "html_attributions": [
            "<a href=\"https://maps.google.com/maps/contrib/103374232600934387401\">abouelfalah adil</a>"
          ],
          "photo_reference": "CmRaAAAADbaOWYIBrjqMmgXhyXsKe4bTXGFB2GGYjMSKzx0s4cHuc7DjEEoFI_CdNPcwWmJvBIT2ow-H9b_LkESl7Gi90gKmxlcBAZwstYuYnF4FRhACiFJTaYb98OB4CY1aruTAEhAiamfryvuDZQeUtrzcZ6ijGhSfWyzDd5qKu_cpBqqM-Ci2nAAqsA",
          "width": 1080
        }
      ],
      "place_id": "ChIJI__egEUioFMRXRX2SgygH0E",
      "reference": "ChIJI__egEUioFMRXRX2SgygH0E",
      "types": ["locality", "political"]
    }
  },
  {
    "place": {
      "name": "Vancouver",
      "placeType": {"code": 7, "name": "Town"},
      "url": "http://where.yahooapis.com/v1/place/9807",
      "parentid": 23424775,
      "country": "Canada",
      "woeid": 9807,
      "countryCode": "CA"
    },
    "geo": {
      "formatted_address": "Vancouver, BC, Canada",
      "geometry": {
        "location": {"lat": 49.2827291, "lng": -123.1207375},
        "viewport": {
          "northeast": {"lat": 49.3172939, "lng": -123.023068},
          "southwest": {"lat": 49.19817700000001, "lng": -123.22474}
        }
      },
      "icon": "https://maps.gstatic.com/mapfiles/place_api/icons/geocode-71.png",
      "id": "73c0f2c8244c8770f1af0c29eb7fcfe0c88be45d",
      "name": "Vancouver",
      "photos": [
        {
          "height": 640,
          "html_attributions": [
            "<a href=\"https://maps.google.com/maps/contrib/105039795791426870166\">Fahid Sourav</a>"
          ],
          "photo_reference": "CmRaAAAAH6gYcZt0FWoiQ2RV5q2rVPnzsw1DJoV3P0TTqlAXtSmURcfnulYsyBQRoni4s3iI5zdAFdv_fpa-jAyNE_3uNfoVMozKCtvNI04atQnoJP4kxjOhKxgGy2GPGOuRumFUEhDF-YZSrZrUzh78Qc0qOVq_GhS5C17Ff6IK-iUUx3UTZnZ9QJbz0g",
          "width": 640
        }
      ],
      "place_id": "ChIJs0-pQ_FzhlQRi_OBm-qWkbs",
      "reference": "ChIJs0-pQ_FzhlQRi_OBm-qWkbs",
      "types": ["locality", "political"]
    }
  },
  {
    "place": {
      "name": "Birmingham",
      "placeType": {"code": 7, "name": "Town"},
      "url": "http://where.yahooapis.com/v1/place/12723",
      "parentid": 23424975,
      "country": "United Kingdom",
      "woeid": 12723,
      "countryCode": "GB"
    },
    "geo": {
      "formatted_address": "Birmingham, UK",
      "geometry": {
        "location": {"lat": 52.48624299999999, "lng": -1.890401},
        "viewport": {
          "northeast": {"lat": 52.5688762, "lng": -1.7098294},
          "southwest": {"lat": 52.385999, "lng": -2.0174336}
        }
      },
      "icon": "https://maps.gstatic.com/mapfiles/place_api/icons/geocode-71.png",
      "name": "Birmingham",
      "photos": [
        {
          "height": 2116,
          "html_attributions": [
            "<a href=\"https://maps.google.com/maps/contrib/103168229688864876936\">Russell Holden</a>"
          ],
          "photo_reference": "CmRaAAAA5PER7xqUjNyjs3HFkLPgSfBw8Xv-cSy5IDeNtzcuyUwoIwt54VTNT2UNqa-1O9kUo3dbarvd0wVHhMjdO2vAcoNThqtZGrDdDVgnwX8zhOcIN795ckVN9Ov6hqkCA-FPEhCiFxT2KaicDcNDFNspYkuXGhQlOQ1P7KWIHBqg4o3IXMrHRJ4tsQ",
          "width": 2116
        }
      ],
      "place_id": "ChIJc3FBGy2UcEgRmHnurvD-gco",
      "reference": "ChIJc3FBGy2UcEgRmHnurvD-gco",
      "types": ["locality", "political"]
    }
  },
  {
    "place": {
      "name": "Blackpool",
      "placeType": {"code": 7, "name": "Town"},
      "url": "http://where.yahooapis.com/v1/place/12903",
      "parentid": 23424975,
      "country": "United Kingdom",
      "woeid": 12903,
      "countryCode": "GB"
    },
    "geo": {
      "formatted_address": "Blackpool, UK",
      "geometry": {
        "location": {"lat": 53.8175053, "lng": -3.0356748},
        "viewport": {
          "northeast": {"lat": 53.8782396, "lng": -2.9858799},
          "southwest": {"lat": 53.7725781, "lng": -3.0625248}
        }
      },
      "icon": "https://maps.gstatic.com/mapfiles/place_api/icons/geocode-71.png",
      "name": "Blackpool",
      "photos": [
        {
          "height": 628,
          "html_attributions": [
            "<a href=\"https://maps.google.com/maps/contrib/113844382423575493326\">Rodney Alvin</a>"
          ],
          "photo_reference": "CmRaAAAAA-IA5wBqh0LtY2EYBf5JcecUVtur7WOr4iBl_sOJbb7_6m88574wQ-5y1y1u0QGp7xf62WsJVuUkmw7wndAiogXUOMmR-SdzzstgFBJsJC71XGfJQQRAmYNk2XNtxjQWEhDsOKKsCe4NoRIqbtEyrf5AGhRcmlUXD0hk0EeyU-JAPh5oqipa2A",
          "width": 1200
        }
      ],
      "place_id": "ChIJF9BC6RdBe0gRycIykheyLbU",
      "reference": "ChIJF9BC6RdBe0gRycIykheyLbU",
      "types": ["locality", "political"]
    }
  },
  {
    "place": {
      "name": "Bournemouth",
      "placeType": {"code": 7, "name": "Town"},
      "url": "http://where.yahooapis.com/v1/place/13383",
      "parentid": 23424975,
      "country": "United Kingdom",
      "woeid": 13383,
      "countryCode": "GB"
    },
    "geo": {
      "formatted_address": "Bournemouth, UK",
      "geometry": {
        "location": {"lat": 50.719164, "lng": -1.880769},
        "viewport": {
          "northeast": {"lat": 50.7988916, "lng": -1.7406581},
          "southwest": {"lat": 50.7091165, "lng": -1.9788195}
        }
      },
      "icon": "https://maps.gstatic.com/mapfiles/place_api/icons/geocode-71.png",
      "id": "7fb73e1716b21f6def9200b040f33e6ae8db50ed",
      "name": "Bournemouth",
      "photos": [
        {
          "height": 2160,
          "html_attributions": [
            "<a href=\"https://maps.google.com/maps/contrib/117131244285906093499\">Olga Kamińska</a>"
          ],
          "photo_reference": "CmRaAAAA_jXbCV_buwjR884s7InPhmPNnwIKdSOarSf5ccL15ldEFCgraFHRE1ElYj1_vWkh06xsu7EqrthTVN0AKx7wh8riV-uCrsiXvU4cAhbhCb26xkJlrHDuERti-5PeU89zEhCI4GR1EM1KRTKpO9KsOTuhGhS_QDpQEcVP9oLwOmrb4TMwUKNjrw",
          "width": 3840
        }
      ],
      "place_id": "ChIJ_WegsaCYc0gRlCypaxXgLjs",
      "reference": "ChIJ_WegsaCYc0gRlCypaxXgLjs",
      "types": ["locality", "political"]
    }
  },
  {
    "place": {
      "name": "Brighton",
      "placeType": {"code": 7, "name": "Town"},
      "url": "http://where.yahooapis.com/v1/place/13911",
      "parentid": 23424975,
      "country": "United Kingdom",
      "woeid": 13911,
      "countryCode": "GB"
    },
    "geo": {
      "formatted_address": "Brighton, UK",
      "geometry": {
        "location": {"lat": 50.82253000000001, "lng": -0.137163},
        "viewport": {
          "northeast": {"lat": 50.8735837, "lng": -0.03626},
          "southwest": {"lat": 50.8012522, "lng": -0.1761194}
        }
      },
      "icon": "https://maps.gstatic.com/mapfiles/place_api/icons/geocode-71.png",
      "name": "Brighton",
      "photos": [
        {
          "height": 3000,
          "html_attributions": [
            "<a href=\"https://maps.google.com/maps/contrib/113191658490324306645\">David Čáslavský</a>"
          ],
          "photo_reference": "CmRaAAAALcOsNqrYG7AryNPRLbhXfaxU0Iy1aytsftrsV_O4YGNBMFCXtGUk2LMWdj6NyYRl-LNezawhJTEuRbmJnBw7v7r8_85VicnZ0g4E5s5Jk7et9dFEMm4k-Qx7SIv8_5HQEhCOyBkX3nAW5GO_EwnnYeHeGhS89CzuzAH1u0i9hMx71MY-5T3K4A",
          "width": 4000
        }
      ],
      "place_id": "ChIJZ0Ep9gmFdUgR-Q59cnqvxpw",
      "reference": "ChIJZ0Ep9gmFdUgR-Q59cnqvxpw",
      "types": ["locality", "political"]
    }
  },
  {
    "place": {
      "name": "Bristol",
      "placeType": {"code": 7, "name": "Town"},
      "url": "http://where.yahooapis.com/v1/place/13963",
      "parentid": 23424975,
      "country": "United Kingdom",
      "woeid": 13963,
      "countryCode": "GB"
    },
    "geo": {
      "formatted_address": "Bristol, UK",
      "geometry": {
        "location": {"lat": 51.454513, "lng": -2.58791},
        "viewport": {
          "northeast": {"lat": 51.5444326, "lng": -2.4509024},
          "southwest": {"lat": 51.39254529999999, "lng": -2.7305326}
        }
      },
      "icon": "https://maps.gstatic.com/mapfiles/place_api/icons/geocode-71.png",
      "name": "Bristol",
      "photos": [
        {
          "height": 454,
          "html_attributions": [
            "<a href=\"https://maps.google.com/maps/contrib/104949121987198987785\">Vladimir Iliev</a>"
          ],
          "photo_reference": "CmRaAAAAkKblNujMZtddcKpCHaOJhs5PlQVgHEmppAc--IL5PFnEKAnnZyn5LL8Vfv2JkqSjigS6Q0qKojG-qm82KXA9W0NshcwjIhY_-3xM83rj22cl3clr8KTA_A4chVpH-UKAEhBHxVHgFRY5_pQ2jVrB9AjJGhT9kXjbfYuMXln3NlJ0QvQT2_B3vw",
          "width": 750
        }
      ],
      "place_id": "ChIJYdizgWaDcUgRH9eaSy6y5I4",
      "reference": "ChIJYdizgWaDcUgRH9eaSy6y5I4",
      "types": ["locality", "political"]
    }
  },
  {
    "place": {
      "name": "Cardiff",
      "placeType": {"code": 7, "name": "Town"},
      "url": "http://where.yahooapis.com/v1/place/15127",
      "parentid": 23424975,
      "country": "United Kingdom",
      "woeid": 15127,
      "countryCode": "GB"
    },
    "geo": {
      "formatted_address": "Cardiff, UK",
      "geometry": {
        "location": {"lat": 51.48158100000001, "lng": -3.17909},
        "viewport": {
          "northeast": {"lat": 51.5609063, "lng": -3.1164374},
          "southwest": {"lat": 51.4435752, "lng": -3.2936626}
        }
      },
      "icon": "https://maps.gstatic.com/mapfiles/place_api/icons/geocode-71.png",
      "id": "8ae599daa215ed70ffcef9a96663f62d4c576bf9",
      "name": "Cardiff",
      "photos": [
        {
          "height": 2988,
          "html_attributions": [
            "<a href=\"https://maps.google.com/maps/contrib/108167746535281167998\">Antony Cherukattu</a>"
          ],
          "photo_reference": "CmRaAAAABPqWUZefyC4UItnpEY4BhVgctqTMBjNlIsHuE_PzRHgMKSGgz9JrZ4sTHgcmg02G6yxsGqBqZShhs2ImqSe42lORKLKM1IxGUDQn6AQZC8eA-ER-0bNg4-HEbbuqjOPMEhDlgvVspUiuGauvyOshQOvKGhQb3y-1V-7JYTpITTmajLDT5YZ9jA",
          "width": 3984
        }
      ],
      "place_id": "ChIJ9VPsNNQCbkgRDmeGZdsGNBQ",
      "reference": "ChIJ9VPsNNQCbkgRDmeGZdsGNBQ",
      "types": ["locality", "political"]
    }
  },
  {
    "place": {
      "name": "Coventry",
      "placeType": {"code": 7, "name": "Town"},
      "url": "http://where.yahooapis.com/v1/place/17044",
      "parentid": 23424975,
      "country": "United Kingdom",
      "woeid": 17044,
      "countryCode": "GB"
    },
    "geo": {
      "formatted_address": "Coventry, UK",
      "geometry": {
        "location": {"lat": 52.406822, "lng": -1.519693},
        "viewport": {
          "northeast": {"lat": 52.4634723, "lng": -1.4239508},
          "southwest": {"lat": 52.3639108, "lng": -1.6058853}
        }
      },
      "icon": "https://maps.gstatic.com/mapfiles/place_api/icons/geocode-71.png",
      "id": "ed09cd044cfefbfe0decefb468471adc7441056c",
      "name": "Coventry",
      "photos": [
        {
          "height": 3120,
          "html_attributions": [
            "<a href=\"https://maps.google.com/maps/contrib/105308705232123311445\">Richard Smyton</a>"
          ],
          "photo_reference": "CmRaAAAAWQn77aA_kh6Sut9lj8A_M6MPntoelcBRs5IZexGCZkLZCm-4Tpzy5h9nH3tT9q7lHwbvf5uaSIlwNaMKRvonoYkuApcusmcKwUZV7u9bDjuB_oVEibONuB7O3QxL9VG8EhDXyeTr91dI9yg8IGp3Kz7hGhRlt6cWvujEYSNYyi8t6Pe1wCsy0g",
          "width": 4160
        }
      ],
      "place_id": "ChIJtyJuZVGxcEgRiQZPVvVg9gQ",
      "reference": "ChIJtyJuZVGxcEgRiQZPVvVg9gQ",
      "types": ["locality", "political"]
    }
  },
  {
    "place": {
      "name": "Derby",
      "placeType": {"code": 7, "name": "Town"},
      "url": "http://where.yahooapis.com/v1/place/18114",
      "parentid": 23424975,
      "country": "United Kingdom",
      "woeid": 18114,
      "countryCode": "GB"
    },
    "geo": {
      "formatted_address": "Derby, UK",
      "geometry": {
        "location": {"lat": 52.9225301, "lng": -1.4746186},
        "viewport": {
          "northeast": {"lat": 52.9681352, "lng": -1.3830782},
          "southwest": {"lat": 52.861037, "lng": -1.556857}
        }
      },
      "icon": "https://maps.gstatic.com/mapfiles/place_api/icons/geocode-71.png",
      "id": "ced370e64c53dddcbb4d90f84c84310b7ef9abc1",
      "name": "Derby",
      "photos": [
        {
          "height": 612,
          "html_attributions": [
            "<a href=\"https://maps.google.com/maps/contrib/116832925424149125372\">荡云海</a>"
          ],
          "photo_reference": "CmRaAAAAzQbakrON9D4XG5ITAbo4KYBvYbRDclUFLB_8WIF01x2_eqcJDoXKvbv8zCL7Ce-f-L19Ei6Dcc_bI6RfPa4j3GbcHT0Ec41l6CWlWcROQcmz1HvhANYaGVdxsVcwAid-EhAI6FxojEM4-Pf3OI3SPW58GhQRiLaZp8XGRK1g7_GiqYaV8fgx_w",
          "width": 612
        }
      ],
      "place_id": "ChIJp8qkhjLkeUgR3zZOld7JXwA",
      "reference": "ChIJp8qkhjLkeUgR3zZOld7JXwA",
      "types": ["locality", "political"]
    }
  },
  {
    "place": {
      "name": "Edinburgh",
      "placeType": {"code": 7, "name": "Town"},
      "url": "http://where.yahooapis.com/v1/place/19344",
      "parentid": 23424975,
      "country": "United Kingdom",
      "woeid": 19344,
      "countryCode": "GB"
    },
    "geo": {
      "formatted_address": "Edinburgh, UK",
      "geometry": {
        "location": {"lat": 55.953252, "lng": -3.188267},
        "viewport": {
          "northeast": {"lat": 55.9919939, "lng": -3.0776588},
          "southwest": {"lat": 55.8904228, "lng": -3.3330187}
        }
      },
      "icon": "https://maps.gstatic.com/mapfiles/place_api/icons/geocode-71.png",
      "name": "Edinburgh",
      "photos": [
        {
          "height": 1152,
          "html_attributions": [
            "<a href=\"https://maps.google.com/maps/contrib/110216281066950057626\">josep pairo</a>"
          ],
          "photo_reference": "CmRaAAAAg5QgVAtYB1ZkjZWDj9xlCe2XxA5nU-DiGYmtwE2vW9He_oLBtCpBwj-EM3bY6gRZ2vJyiUU1vQV7GZMOxNq4NxgLtWCnQAMYfFaeT6NlLn5F88F3Pkbg6KfPgMvTz8zEEhD4QTzTgzYSNUEDpZ6qabwlGhS5TZH5pv4Mv0vaq8-Nzdcf-6-mPA",
          "width": 2048
        }
      ],
      "place_id": "ChIJIyaYpQC4h0gRJxfnfHsU8mQ",
      "reference": "ChIJIyaYpQC4h0gRJxfnfHsU8mQ",
      "types": ["locality", "political"]
    }
  },
  {
    "place": {
      "name": "Glasgow",
      "placeType": {"code": 7, "name": "Town"},
      "url": "http://where.yahooapis.com/v1/place/21125",
      "parentid": 23424975,
      "country": "United Kingdom",
      "woeid": 21125,
      "countryCode": "GB"
    },
    "geo": {
      "formatted_address": "Glasgow, UK",
      "geometry": {
        "location": {"lat": 55.864237, "lng": -4.251806},
        "viewport": {
          "northeast": {"lat": 55.9296413, "lng": -4.0717167},
          "southwest": {"lat": 55.7812791, "lng": -4.3932005}
        }
      },
      "icon": "https://maps.gstatic.com/mapfiles/place_api/icons/geocode-71.png",
      "name": "Glasgow",
      "photos": [
        {
          "height": 4160,
          "html_attributions": [
            "<a href=\"https://maps.google.com/maps/contrib/108587184081576666071\">Vasil Penchev</a>"
          ],
          "photo_reference": "CmRaAAAAuGy_fO4cjo7ne1wu6iRKCi_FgC5DOBp073v4pUQi0aecMMHQ44weX0A2toqsJPvP8Hkfga-JT_LhG_AM-5AGKCyQW6WwFi1q5bvd7C4vLvMYwIUBkFmBbv7N9BqKn9eEEhBCh9sf8PEWCs9_DBNt0qMTGhR5IXCWC8VIDsAmOJlDJuMdA1Th8w",
          "width": 3120
        }
      ],
      "place_id": "ChIJ685WIFYViEgRHlHvBbiD5nE",
      "reference": "ChIJ685WIFYViEgRHlHvBbiD5nE",
      "types": ["locality", "political"]
    }
  },
  {
    "place": {
      "name": "Hull",
      "placeType": {"code": 7, "name": "Town"},
      "url": "http://where.yahooapis.com/v1/place/25211",
      "parentid": 23424975,
      "country": "United Kingdom",
      "woeid": 25211,
      "countryCode": "GB"
    },
    "geo": {
      "formatted_address": "Hull, UK",
      "geometry": {
        "location": {"lat": 53.76762360000001, "lng": -0.3274198},
        "viewport": {
          "northeast": {"lat": 53.8132502, "lng": -0.2413964},
          "southwest": {"lat": 53.71949129999999, "lng": -0.4225751}
        }
      },
      "icon": "https://maps.gstatic.com/mapfiles/place_api/icons/geocode-71.png",
      "name": "Hull",
      "photos": [
        {
          "height": 3024,
          "html_attributions": [
            "<a href=\"https://maps.google.com/maps/contrib/107414792131250055991\">kris burton</a>"
          ],
          "photo_reference": "CmRaAAAAo1VNuFeY245HLJAJjm8EYTeHzs9okSS9N2mlzjpjVnayTI039CdZfZbesUnI1-n-Sy9J99SuKRjld9FMq06Vp4Lu4ql0zdgb_1SBeKaLav1OjIl9u13JxjspmKYxBBAzEhD_mdmXBe7d95WgFqIOd_wUGhQujPVhRd5zo3Iebw9etLK-g4S0uQ",
          "width": 4032
        }
      ],
      "place_id": "ChIJrWABfI8g1kcR_zDxgp1-RG0",
      "reference": "ChIJrWABfI8g1kcR_zDxgp1-RG0",
      "types": ["locality", "political"]
    }
  },
  {
    "place": {
      "name": "Leeds",
      "placeType": {"code": 7, "name": "Town"},
      "url": "http://where.yahooapis.com/v1/place/26042",
      "parentid": 23424975,
      "country": "United Kingdom",
      "woeid": 26042,
      "countryCode": "GB"
    },
    "geo": {
      "formatted_address": "Leeds, UK",
      "geometry": {
        "location": {"lat": 53.8007554, "lng": -1.5490774},
        "viewport": {
          "northeast": {"lat": 53.8812021, "lng": -1.3973731},
          "southwest": {"lat": 53.7308029, "lng": -1.6740915}
        }
      },
      "icon": "https://maps.gstatic.com/mapfiles/place_api/icons/geocode-71.png",
      "id": "ce2623b925d445a74cc4901e22ca939e928b8c74",
      "name": "Leeds",
      "photos": [
        {
          "height": 4032,
          "html_attributions": [
            "<a href=\"https://maps.google.com/maps/contrib/111876547298405714621\">Slavomír Slížik</a>"
          ],
          "photo_reference": "CmRaAAAAVfCTZtE6STwPt6J_UrPHlj4fziV5ggahcBGN91QhtGX6OuOiuIuho5P4w2gINXzKYgcjiUBHX2HMLWPCVTzoDj2Wk8AEZniyfQxtujucaKsjt53-ZlgdzBR9m_9XDNAZEhDFwqGbjiKaNwl3qJ0rmWQ1GhTc8IUTC4KLNgBuIWNDapLqoLHDFw",
          "width": 3024
        }
      ],
      "place_id": "ChIJmb1k2ko-eUgRqdwTAv26rVE",
      "reference": "ChIJmb1k2ko-eUgRqdwTAv26rVE",
      "types": ["locality", "political"]
    }
  },
  {
    "place": {
      "name": "Leicester",
      "placeType": {"code": 7, "name": "Town"},
      "url": "http://where.yahooapis.com/v1/place/26062",
      "parentid": 23424975,
      "country": "United Kingdom",
      "woeid": 26062,
      "countryCode": "GB"
    },
    "geo": {
      "formatted_address": "Leicester, UK",
      "geometry": {
        "location": {"lat": 52.6368778, "lng": -1.1397592},
        "viewport": {
          "northeast": {"lat": 52.6915038, "lng": -1.0462128},
          "southwest": {"lat": 52.5806504, "lng": -1.2159877}
        }
      },
      "icon": "https://maps.gstatic.com/mapfiles/place_api/icons/geocode-71.png",
      "id": "17a2418c601620c23f48b3e9ee8d2423a90bf773",
      "name": "Leicester",
      "photos": [
        {
          "height": 1599,
          "html_attributions": [
            "<a href=\"https://maps.google.com/maps/contrib/103277992283352462783\">A Google User</a>"
          ],
          "photo_reference": "CmRaAAAARDn0dJGGm_Ocos-wEqtp7B0Cn2b1Aeh5zo_-UrNAoxoalQ2knjjcMuM9apKYegNbl-SN--Dzhd7n8K1A4YAGGewn6URAXuwrH3CgQ7yu3Q3PyHCegz-h_bVvSsQTU8zlEhDF-d5k5IUgcQJZEIKDgFFkGhRoeQ79QTMdq6FqkuuwoTUDO8VH0g",
          "width": 1200
        }
      ],
      "place_id": "ChIJc2y3SatCd0gRuJy0byodFZo",
      "reference": "ChIJc2y3SatCd0gRuJy0byodFZo",
      "types": ["locality", "political"]
    }
  },
  {
    "place": {
      "name": "Liverpool",
      "placeType": {"code": 7, "name": "Town"},
      "url": "http://where.yahooapis.com/v1/place/26734",
      "parentid": 23424975,
      "country": "United Kingdom",
      "woeid": 26734,
      "countryCode": "GB"
    },
    "geo": {
      "formatted_address": "Liverpool, UK",
      "geometry": {
        "location": {"lat": 53.4083714, "lng": -2.9915726},
        "viewport": {
          "northeast": {"lat": 53.503907, "lng": -2.8129382},
          "southwest": {"lat": 53.3204478, "lng": -3.0191793}
        }
      },
      "icon": "https://maps.gstatic.com/mapfiles/place_api/icons/geocode-71.png",
      "name": "Liverpool",
      "photos": [
        {
          "height": 768,
          "html_attributions": [
            "<a href=\"https://maps.google.com/maps/contrib/104494000466617447205\">Manju Gupta</a>"
          ],
          "photo_reference": "CmRaAAAALtKE_SliV9HM-VS6qYHloYT_UEiAebzZWW-_J1X8PkC9RRXrRaU7QEeUENLJ_97SVPhhlr16_FDB_4axvAj8XMH57eOLQo9I5QlYBclTQfk6l88gbpXo9Xj7rmSrI7BYEhDvKP9PCjwiFaWq5RDmZRAqGhQqAjq0BILQDczIlMxS4OVvfqYprA",
          "width": 1024
        }
      ],
      "place_id": "ChIJt2BwZIrfekgRAW4XP28E3EI",
      "reference": "ChIJt2BwZIrfekgRAW4XP28E3EI",
      "types": ["locality", "political"]
    }
  },
  {
    "place": {
      "name": "Manchester",
      "placeType": {"code": 7, "name": "Town"},
      "url": "http://where.yahooapis.com/v1/place/28218",
      "parentid": 23424975,
      "country": "United Kingdom",
      "woeid": 28218,
      "countryCode": "GB"
    },
    "geo": {
      "formatted_address": "Manchester, UK",
      "geometry": {
        "location": {"lat": 53.4807593, "lng": -2.2426305},
        "viewport": {
          "northeast": {"lat": 53.5445879, "lng": -2.1468288},
          "southwest": {"lat": 53.39990299999999, "lng": -2.3000969}
        }
      },
      "icon": "https://maps.gstatic.com/mapfiles/place_api/icons/geocode-71.png",
      "id": "61c34247dcf1be30d9aba564a005e77749d1dbaf",
      "name": "Manchester",
      "photos": [
        {
          "height": 3058,
          "html_attributions": [
            "<a href=\"https://maps.google.com/maps/contrib/104678895209139398661\">Rahul Shukla</a>"
          ],
          "photo_reference": "CmRaAAAAhy3WzasBgEppK8LihyR_DqQlGizO8SVHj534ZtWsFbKEw1m8SVggayghlMfOtI2n1p1hf07Z3au_uIyICzBmWkv0aefn44hnLu0paDUIxJ0mh27dx_ZfUhCci7XfC6-REhDTMQd2gwS6i-8VFpcYWzVQGhSi4yWcU28q41TUPh4Hnn7--4Nrng",
          "width": 5231
        }
      ],
      "place_id": "ChIJ2_UmUkxNekgRqmv-BDgUvtk",
      "reference": "ChIJ2_UmUkxNekgRqmv-BDgUvtk",
      "types": ["locality", "political"]
    }
  },
  {
    "place": {
      "name": "Middlesbrough",
      "placeType": {"code": 7, "name": "Town"},
      "url": "http://where.yahooapis.com/v1/place/28869",
      "parentid": 23424975,
      "country": "United Kingdom",
      "woeid": 28869,
      "countryCode": "GB"
    },
    "geo": {
      "formatted_address": "Middlesbrough, UK",
      "geometry": {
        "location": {"lat": 54.574227, "lng": -1.234956},
        "viewport": {
          "northeast": {"lat": 54.5915173, "lng": -1.1666256},
          "southwest": {"lat": 54.51755199999999, "lng": -1.2794683}
        }
      },
      "icon": "https://maps.gstatic.com/mapfiles/place_api/icons/geocode-71.png",
      "name": "Middlesbrough",
      "photos": [
        {
          "height": 3120,
          "html_attributions": [
            "<a href=\"https://maps.google.com/maps/contrib/108587184081576666071\">Vasil Penchev</a>"
          ],
          "photo_reference": "CmRaAAAAslI_qBYCBgeB_6hfITQvJHXGnebQqe3UH0zgNqy0dmY7r5AJcUrRWWGt6I7du057LwV7TejADznBylnqU-XdLOn4crQiBTyHkBIKbWgMjQvXq9twDMfDPMPaR3nP3FEOEhA9iviRPm8hO_7H7XIunWe4GhTxMyTK3eQqrtHWPvzA07n8g1SaQg",
          "width": 4160
        }
      ],
      "place_id": "ChIJGZCZYVWTfkgRnPrB4yCfg28",
      "reference": "ChIJGZCZYVWTfkgRnPrB4yCfg28",
      "types": ["locality", "political"]
    }
  },
  {
    "place": {
      "name": "Newcastle",
      "placeType": {"code": 7, "name": "Town"},
      "url": "http://where.yahooapis.com/v1/place/30079",
      "parentid": 23424975,
      "country": "United Kingdom",
      "woeid": 30079,
      "countryCode": "GB"
    },
    "geo": {
      "formatted_address": "Newcastle upon Tyne, UK",
      "geometry": {
        "location": {"lat": 54.978252, "lng": -1.61778},
        "viewport": {
          "northeast": {"lat": 55.0453044, "lng": -1.5326051},
          "southwest": {"lat": 54.9594399, "lng": -1.7810817}
        }
      },
      "icon": "https://maps.gstatic.com/mapfiles/place_api/icons/geocode-71.png",
      "id": "a50942927e6cf72c7c9e8bf77049da5191857b60",
      "name": "Newcastle upon Tyne",
      "photos": [
        {
          "height": 423,
          "html_attributions": [
            "<a href=\"https://maps.google.com/maps/contrib/116494234234633819897\">Ubaida Chair</a>"
          ],
          "photo_reference": "CmRaAAAAgHovRcSak70HhZC0SlCDKTqSbS-fkjuBfSQGFajQMe0hANVIk-n4sPo8o6begnGbXYJxtO28oxybPMS5o0JzGP1bYOSJd2hMz0K9cj_IDAX_AUe0Z56BY4vhJwvHYQOUEhCzKzHnCUEepMqMwyoQV6-LGhRwZopivYunaCDtM_HtR0E8EgSdaQ",
          "width": 564
        }
      ],
      "place_id": "ChIJzWRvDH6FfUgRkWGncrBS4gs",
      "reference": "ChIJzWRvDH6FfUgRkWGncrBS4gs",
      "types": ["locality", "political"]
    }
  },
  {
    "place": {
      "name": "Nottingham",
      "placeType": {"code": 7, "name": "Town"},
      "url": "http://where.yahooapis.com/v1/place/30720",
      "parentid": 23424975,
      "country": "United Kingdom",
      "woeid": 30720,
      "countryCode": "GB"
    },
    "geo": {
      "formatted_address": "Nottingham, UK",
      "geometry": {
        "location": {"lat": 52.95478319999999, "lng": -1.1581086},
        "viewport": {
          "northeast": {"lat": 53.019045, "lng": -1.0918336},
          "southwest": {"lat": 52.889, "lng": -1.2482899}
        }
      },
      "icon": "https://maps.gstatic.com/mapfiles/place_api/icons/geocode-71.png",
      "id": "afd188cae707bb4b0665711047b5648fc817109e",
      "name": "Nottingham",
      "photos": [
        {
          "height": 2340,
          "html_attributions": [
            "<a href=\"https://maps.google.com/maps/contrib/107768781780187187635\">A Google User</a>"
          ],
          "photo_reference": "CmRaAAAA-dAEgWHzbJJ-LO4D9UQ6PO6xrnoaFNff_VSe4xMB7b54N8a51ORn-jPjuEm8YHZuvKxOeGMA_dA-yc1p8w2EpHSnT5JIMnSFkA2dFhknE66JlOf-aTwGbYqjrIFfPrQSEhB61eIrev36TWsQkptCBAA_GhRiT0FQN1BYlNGXoAwsGNdEoJ9Ofw",
          "width": 4160
        }
      ],
      "place_id": "ChIJzXkHOdIyeEgRFdsZGSBjgBA",
      "reference": "ChIJzXkHOdIyeEgRFdsZGSBjgBA",
      "types": ["locality", "political"]
    }
  },
  {
    "place": {
      "name": "Plymouth",
      "placeType": {"code": 7, "name": "Town"},
      "url": "http://where.yahooapis.com/v1/place/32185",
      "parentid": 23424975,
      "country": "United Kingdom",
      "woeid": 32185,
      "countryCode": "GB"
    },
    "geo": {
      "formatted_address": "Plymouth, UK",
      "geometry": {
        "location": {"lat": 50.3754565, "lng": -4.1426565},
        "viewport": {
          "northeast": {"lat": 50.4441664, "lng": -4.0196074},
          "southwest": {"lat": 50.332722, "lng": -4.205532499999999}
        }
      },
      "icon": "https://maps.gstatic.com/mapfiles/place_api/icons/geocode-71.png",
      "id": "147cc55720e35b5c21fece2b63a7e41922de2924",
      "name": "Plymouth",
      "photos": [
        {
          "height": 3096,
          "html_attributions": [
            "<a href=\"https://maps.google.com/maps/contrib/113308907243088156538\">butcombe bill</a>"
          ],
          "photo_reference": "CmRaAAAA9nVeQmiSyA2fcHW1OTmZfkXmZyAmaeSE9rV_oqLuZ2nqBrxjaY6fs18YAIetlN1H6rwkpguUuEIKO4hnVnJwghiIqq3fgomrXx7swmWqB-X1qZbV4GIH7vX5-BtqgRM3EhAlWkfS8HGlOlQlHkqIoCKIGhQxEEedC2_lmqZ4R4srtaMUbeLhfQ",
          "width": 4128
        }
      ],
      "place_id": "ChIJPeqVDlONbEgRk4X1zrUsKDs",
      "reference": "ChIJPeqVDlONbEgRk4X1zrUsKDs",
      "types": ["locality", "political"]
    }
  },
  {
    "place": {
      "name": "Portsmouth",
      "placeType": {"code": 7, "name": "Town"},
      "url": "http://where.yahooapis.com/v1/place/32452",
      "parentid": 23424975,
      "country": "United Kingdom",
      "woeid": 32452,
      "countryCode": "GB"
    },
    "geo": {
      "formatted_address": "Portsmouth, UK",
      "geometry": {
        "location": {"lat": 50.8197675, "lng": -1.0879769},
        "viewport": {
          "northeast": {"lat": 50.8593091, "lng": -1.0184922},
          "southwest": {"lat": 50.7501624, "lng": -1.1749682}
        }
      },
      "icon": "https://maps.gstatic.com/mapfiles/place_api/icons/geocode-71.png",
      "name": "Portsmouth",
      "photos": [
        {
          "height": 2304,
          "html_attributions": [
            "<a href=\"https://maps.google.com/maps/contrib/106759731859615056885\">Jack Lee</a>"
          ],
          "photo_reference": "CmRaAAAAnWZSBflj87j48hRiH19YpEl4chpHjB2qneGzO6yBkoEcLnyXXNhJrHlJDlw4wZpqevcmDWE3zATlz7Tb5kkH-7oe8gPDpbQ4PIf4sWOPIFF_XsBxsilwH5FvkG6_MoOcEhCpss9bUQViDblAAAuguF-SGhQ_N0ubWeY4P5EoNFc1zjlv3L7upw",
          "width": 3072
        }
      ],
      "place_id": "ChIJ6fEUGKRCdEgReTs3A-qDtkU",
      "reference": "ChIJ6fEUGKRCdEgReTs3A-qDtkU",
      "types": ["locality", "political"]
    }
  },
  {
    "place": {
      "name": "Preston",
      "placeType": {"code": 7, "name": "Town"},
      "url": "http://where.yahooapis.com/v1/place/32566",
      "parentid": 23424975,
      "country": "United Kingdom",
      "woeid": 32566,
      "countryCode": "GB"
    },
    "geo": {
      "formatted_address": "Preston, UK",
      "geometry": {
        "location": {"lat": 53.763201, "lng": -2.70309},
        "viewport": {
          "northeast": {"lat": 53.7924911, "lng": -2.63028},
          "southwest": {"lat": 53.74802099999999, "lng": -2.7640235}
        }
      },
      "icon": "https://maps.gstatic.com/mapfiles/place_api/icons/geocode-71.png",
      "id": "b44598e0baa3725e1667abd054f968e98f96a847",
      "name": "Preston",
      "photos": [
        {
          "height": 3161,
          "html_attributions": [
            "<a href=\"https://maps.google.com/maps/contrib/102917631957628719260\">Roy Caunce</a>"
          ],
          "photo_reference": "CmRaAAAADSdzKNEOGCVbMVY-9j3aTZ2981UuG0ssXSkVZUu6wguob-Z5GwbVQwUNPeE53ILxDHv24nb5D8GQUJGBqA_2ie_tsUU5fJ0SqM0ovBFm2f3tpnuAxs8ZymXoyiyqYKHUEhBmVsQUDO2feWYkCqetOXZHGhTzNpZ6Yl1OtaaKcmz8_fTlLqvP3A",
          "width": 2568
        }
      ],
      "place_id": "ChIJTTx7C8sMe0gRIYeyefsDh9Y",
      "reference": "ChIJTTx7C8sMe0gRIYeyefsDh9Y",
      "types": ["locality", "political"]
    }
  },
  {
    "place": {
      "name": "Sheffield",
      "placeType": {"code": 7, "name": "Town"},
      "url": "http://where.yahooapis.com/v1/place/34503",
      "parentid": 23424975,
      "country": "United Kingdom",
      "woeid": 34503,
      "countryCode": "GB"
    },
    "geo": {
      "formatted_address": "Sheffield, UK",
      "geometry": {
        "location": {"lat": 53.38112899999999, "lng": -1.470085},
        "viewport": {
          "northeast": {"lat": 53.4868828, "lng": -1.334953},
          "southwest": {"lat": 53.3045505, "lng": -1.6639593}
        }
      },
      "icon": "https://maps.gstatic.com/mapfiles/place_api/icons/geocode-71.png",
      "id": "18863b899ee0412fe3381e5e5db440ae7a604022",
      "name": "Sheffield",
      "photos": [
        {
          "height": 2432,
          "html_attributions": [
            "<a href=\"https://maps.google.com/maps/contrib/109621210862959861168\">Ian Knight</a>"
          ],
          "photo_reference": "CmRZAAAAmuqwmLpfuynwdgixRIlfj07E0lM23OLq1dgN3XvJFjy8kp7bbrWXIvWUiecwPSUbH1PBmM4OpJgTpi2R3XmOjZWsDchlp_3yZ8-fHpqtVq0hgABj0tjmZbmMnGB7oD57EhAUQ_6Cf64zNRMCZpM8g3dpGhQI-DDfV-P1scx9NO_mF8nbMM-hCg",
          "width": 3286
        }
      ],
      "place_id": "ChIJFb7o-qkKeUgReLAGr_UnKD4",
      "reference": "ChIJFb7o-qkKeUgReLAGr_UnKD4",
      "types": ["locality", "political"]
    }
  },
  {
    "place": {
      "name": "Stoke-on-Trent",
      "placeType": {"code": 7, "name": "Town"},
      "url": "http://where.yahooapis.com/v1/place/36240",
      "parentid": 23424975,
      "country": "United Kingdom",
      "woeid": 36240,
      "countryCode": "GB"
    },
    "geo": {
      "formatted_address": "Stoke-on-Trent, UK",
      "geometry": {
        "location": {"lat": 53.002668, "lng": -2.179404},
        "viewport": {
          "northeast": {"lat": 53.09254689999999, "lng": -2.0792402},
          "southwest": {"lat": 52.95133149999999, "lng": -2.2402466}
        }
      },
      "icon": "https://maps.gstatic.com/mapfiles/place_api/icons/geocode-71.png",
      "name": "Stoke-on-Trent",
      "photos": [
        {
          "height": 758,
          "html_attributions": [
            "<a href=\"https://maps.google.com/maps/contrib/106722363564518903800\">michael petch</a>"
          ],
          "photo_reference": "CmRaAAAAtIGIHVRdpPovZN2Jx3SeZ_m-qipGDZG_R8jndgcepcZ6lvFD8_BvL4jW0ZfMOAVZtyu8uZ6zs5GXO9T3F0Bshv7Not3mNPXc4Na4rmIfRVyx8YlUTzZGf71vPapW0a0TEhCr27UnVHoKfR8S7wo2ZmtjGhQFkt0JHKrj0AKUTGgacLhvIy_twQ",
          "width": 1600
        }
      ],
      "place_id": "ChIJDUSuD1IRekgRBO7KAi_NzfE",
      "reference": "ChIJDUSuD1IRekgRBO7KAi_NzfE",
      "types": ["locality", "political"]
    }
  },
  {
    "place": {
      "name": "Swansea",
      "placeType": {"code": 7, "name": "Town"},
      "url": "http://where.yahooapis.com/v1/place/36758",
      "parentid": 23424975,
      "country": "United Kingdom",
      "woeid": 36758,
      "countryCode": "GB"
    },
    "geo": {
      "formatted_address": "Swansea, UK",
      "geometry": {
        "location": {"lat": 51.62144, "lng": -3.943645999999999},
        "viewport": {
          "northeast": {"lat": 51.6391493, "lng": -3.9289927},
          "southwest": {"lat": 51.6118816, "lng": -3.967001}
        }
      },
      "icon": "https://maps.gstatic.com/mapfiles/place_api/icons/geocode-71.png",
      "id": "c6f53fd6b351fb3f1481293981f0a1a4f095ddf1",
      "name": "Swansea",
      "photos": [
        {
          "height": 2340,
          "html_attributions": [
            "<a href=\"https://maps.google.com/maps/contrib/103203602899148852387\">Kifah Sumrein</a>"
          ],
          "photo_reference": "CmRaAAAAcqfs0E_R6uWdQBKzFqo2kgY1o5CDTHMdf49XTjYO1M8dxsVoBZTiKXUZ4x3Lzs8XVBspApnGZlF5TwMyM7-qWQ4sRzRv_DC2-EsL9ObXxbUFMpVO4wQbCCYPNLBDeS9oEhDjbO70mqx6e9tay1b94qMcGhRajog3eaBmcP6Sfm81yFCVu0PG6w",
          "width": 4160
        }
      ],
      "place_id": "ChIJsZdOWlVFbkgRdMvnL44Sdz0",
      "reference": "ChIJsZdOWlVFbkgRdMvnL44Sdz0",
      "types": ["locality", "political"]
    }
  },
  {
    "place": {
      "name": "London",
      "placeType": {"code": 7, "name": "Town"},
      "url": "http://where.yahooapis.com/v1/place/44418",
      "parentid": 23424975,
      "country": "United Kingdom",
      "woeid": 44418,
      "countryCode": "GB"
    },
    "geo": {
      "formatted_address": "London, UK",
      "geometry": {
        "location": {"lat": 51.5073509, "lng": -0.1277583},
        "viewport": {
          "northeast": {"lat": 51.6723432, "lng": 0.148271},
          "southwest": {"lat": 51.38494009999999, "lng": -0.3514683}
        }
      },
      "icon": "https://maps.gstatic.com/mapfiles/place_api/icons/geocode-71.png",
      "id": "b1a8b96daab5065cf4a08f953e577c34cdf769c0",
      "name": "London",
      "photos": [
        {
          "height": 1600,
          "html_attributions": [
            "<a href=\"https://maps.google.com/maps/contrib/111638040275638945725\">Jeanmarc Mauron</a>"
          ],
          "photo_reference": "CmRaAAAA2oKo8qOCepbfC3pYObFSn0PVIxBLDxc0ty6uyzt8OzokoX02UBp9aNc4_mZ0L6V5GukS02cwTiFRp3YDflfjDiAAqsSjIS4yUFiJlLO0n_Ak1yDJQEZuQt9m5WaV9PifEhCAlcTDxlMx0HAOHFVYPIVMGhRM7AviJMBwHVgLBiRTtUHP70XWOA",
          "width": 2560
        }
      ],
      "place_id": "ChIJdd4hrwug2EcRmSrV3Vo6llI",
      "reference": "ChIJdd4hrwug2EcRmSrV3Vo6llI",
      "types": ["locality", "political"]
    }
  },
  {
    "place": {
      "name": "Belfast",
      "placeType": {"code": 7, "name": "Town"},
      "url": "http://where.yahooapis.com/v1/place/44544",
      "parentid": 23424975,
      "country": "United Kingdom",
      "woeid": 44544,
      "countryCode": "GB"
    },
    "geo": {
      "formatted_address": "Belfast, UK",
      "geometry": {
        "location": {"lat": 54.59728500000001, "lng": -5.93012},
        "viewport": {
          "northeast": {"lat": 54.65920999999999, "lng": -5.808004599999999},
          "southwest": {"lat": 54.53055, "lng": -6.04526}
        }
      },
      "icon": "https://maps.gstatic.com/mapfiles/place_api/icons/geocode-71.png",
      "id": "a708e99adc4044ab0b1d8609ac079ab3ea014247",
      "name": "Belfast",
      "photos": [
        {
          "height": 3197,
          "html_attributions": [
            "<a href=\"https://maps.google.com/maps/contrib/114647298085396208768\">George Morina</a>"
          ],
          "photo_reference": "CmRaAAAAHmiCNsUd6p3emAu1GTR2XSd7I3OiGZu-G5WuTJR7qvMmMLdoX82XToSnTTuvRz65IDe71VFLm0n9Ilo_9nZK6sgHuXow9BZ054MgPRyydl_bgkrUgLeUTXXOylbuf1urEhBYpMwUKu5Fh2dAbLBfQk8nGhQxu-SNQ-deEeiLWCCm972b3WPWLQ",
          "width": 5005
        }
      ],
      "place_id": "ChIJO4rQ1_3_YEgRMcXH7ywWVy4",
      "reference": "ChIJO4rQ1_3_YEgRMcXH7ywWVy4",
      "types": ["locality", "political"]
    }
  },
  {
    "place": {
      "name": "Santo Domingo",
      "placeType": {"code": 7, "name": "Town"},
      "url": "http://where.yahooapis.com/v1/place/76456",
      "parentid": 23424800,
      "country": "Dominican Republic",
      "woeid": 76456,
      "countryCode": "DO"
    },
    "geo": {
      "formatted_address": "Santo Domingo, Dominican Republic",
      "geometry": {
        "location": {"lat": 18.4860575, "lng": -69.93121169999999},
        "viewport": {
          "northeast": {"lat": 18.5475663, "lng": -69.8749567},
          "southwest": {"lat": 18.4125184, "lng": -70.0188032}
        }
      },
      "icon": "https://maps.gstatic.com/mapfiles/place_api/icons/geocode-71.png",
      "id": "c5da3c9d47ff8e7c97ae5408ce614d5460bcc577",
      "name": "Santo Domingo",
      "photos": [
        {
          "height": 4000,
          "html_attributions": [
            "<a href=\"https://maps.google.com/maps/contrib/111062236179350855128\">Andrews Thomas</a>"
          ],
          "photo_reference": "CmRaAAAAsFwXP9un97kzk7TJpy8vbeDDdDi4JTogY_6CJUqcU9YePjCWukPXP_Cu15e7cad7cO2jF4JCKIPf_PNH0WeSS9q1jYYVcpC_DeWW1ecN2nvpoHZJl9DOOoGWif31VDUaEhCBHWais59yXIZzzleyhKSMGhRUyi9l2rVsVBPmliYcBFtAY-sH1g",
          "width": 6000
        }
      ],
      "place_id": "ChIJq6V-EPGJr44RZMEVJ7iHxdY",
      "reference": "ChIJq6V-EPGJr44RZMEVJ7iHxdY",
      "types": ["locality", "political"]
    }
  },
  {
    "place": {
      "name": "Guatemala City",
      "placeType": {"code": 7, "name": "Town"},
      "url": "http://where.yahooapis.com/v1/place/83123",
      "parentid": 23424834,
      "country": "Guatemala",
      "woeid": 83123,
      "countryCode": "GT"
    },
    "geo": {
      "formatted_address": "Guatemala City, Guatemala",
      "geometry": {
        "location": {"lat": 14.6349149, "lng": -90.5068824},
        "viewport": {
          "northeast": {"lat": 14.7012545, "lng": -90.39645209999999},
          "southwest": {"lat": 14.5511856, "lng": -90.5886688}
        }
      },
      "icon": "https://maps.gstatic.com/mapfiles/place_api/icons/geocode-71.png",
      "id": "ba4fe87e1b3f69eb725b491a8592d070e6c42623",
      "name": "Guatemala City",
      "photos": [
        {
          "height": 2250,
          "html_attributions": [
            "<a href=\"https://maps.google.com/maps/contrib/106213233509713603891\">D T</a>"
          ],
          "photo_reference": "CmRaAAAA0EuCP7X_jtlWxVRuBi9-4GaS0MTTYhIdHK2yJfrjIwHj57duqW7WZSzbaco_uPfGBRQgCOdPxxy6TOxvBZ_GBkn2tMM78Bj3E2rzW87dcUzBdjeBQOvAalJfbs8SuQ2DEhDgHrqv19cNa0BN3IoyokaxGhT-Vp6anxh0C9Kf0RvU-DTvIhgIew",
          "width": 4000
        }
      ],
      "place_id": "ChIJRTNcZYChiYURJXuGW4HHcko",
      "reference": "ChIJRTNcZYChiYURJXuGW4HHcko",
      "types": ["locality", "political"]
    }
  },
  {
    "place": {
      "name": "Acapulco",
      "placeType": {"code": 7, "name": "Town"},
      "url": "http://where.yahooapis.com/v1/place/110978",
      "parentid": 23424900,
      "country": "Mexico",
      "woeid": 110978,
      "countryCode": "MX"
    },
    "geo": {
      "formatted_address": "Acapulco, Guerrero, Mexico",
      "geometry": {
        "location": {"lat": 16.8531086, "lng": -99.8236533},
        "viewport": {
          "northeast": {"lat": 16.9353847, "lng": -99.7224648},
          "southwest": {"lat": 16.7355361, "lng": -100.0021524}
        }
      },
      "icon": "https://maps.gstatic.com/mapfiles/place_api/icons/geocode-71.png",
      "id": "47983da91450bb8c827a7e06c0d62322b361b102",
      "name": "Acapulco",
      "photos": [
        {
          "height": 1053,
          "html_attributions": [
            "<a href=\"https://maps.google.com/maps/contrib/102165985279440805121\">Euro Lion</a>"
          ],
          "photo_reference": "CmRaAAAAmVdt5DFwk5Zs7s3mSKlCvukCuKgSVEkT5v14ZefSylXUZz1AySI7UvsKkmnEX0ULiWZlz2IESIJlKo33tGRe6kmCB3f_VnMeBwXPAn0BTKGZo406BIaXiX-8n6WG-7jiEhCTt-iOZDEIMySwu0HjHosqGhSBP7HzcBYzHD7_QjeP8b-Rd3z50w",
          "width": 1080
        }
      ],
      "place_id": "ChIJyVDOroVXyoUR46SQivfYAZg",
      "reference": "ChIJyVDOroVXyoUR46SQivfYAZg",
      "types": ["locality", "political"]
    }
  },
  {
    "place": {
      "name": "Aguascalientes",
      "placeType": {"code": 7, "name": "Town"},
      "url": "http://where.yahooapis.com/v1/place/111579",
      "parentid": 23424900,
      "country": "Mexico",
      "woeid": 111579,
      "countryCode": "MX"
    },
    "geo": {
      "formatted_address": "Aguascalientes, Mexico",
      "geometry": {
        "location": {"lat": 21.8852562, "lng": -102.2915677},
        "viewport": {
          "northeast": {"lat": 21.9521724, "lng": -102.2270149},
          "southwest": {"lat": 21.8192971, "lng": -102.3555842}
        }
      },
      "icon": "https://maps.gstatic.com/mapfiles/place_api/icons/geocode-71.png",
      "id": "eb1d8ad0ec3ab5b424f83e0d5e4637436b12c23f",
      "name": "Aguascalientes",
      "photos": [
        {
          "height": 2048,
          "html_attributions": [
            "<a href=\"https://maps.google.com/maps/contrib/118442566469218818414\">Eduardo Castro</a>"
          ],
          "photo_reference": "CmRaAAAAQQpjJxXxhehbn6OT-_WVm7T5SwYN4mdtdzMv5rIxSm_AwOdLHTaHUhbyedQvsXW8fTTx3tomw_M9gRQ_Oex_WxIrg3NvXvJ3CTUQubNAl4iLl9eLDCss3aoEirjlTMMwEhBYYTYcHpb3MrYUAe9NSy4BGhToAaXDqO3tfbRT25O3LGZd2sz_rA",
          "width": 1536
        }
      ],
      "place_id": "ChIJ-9nkOhTsKYQRIFKcZ3hpAQQ",
      "reference": "ChIJ-9nkOhTsKYQRIFKcZ3hpAQQ",
      "types": ["locality", "political"]
    }
  },
  {
    "place": {
      "name": "Chihuahua",
      "placeType": {"code": 7, "name": "Town"},
      "url": "http://where.yahooapis.com/v1/place/115958",
      "parentid": 23424900,
      "country": "Mexico",
      "woeid": 115958,
      "countryCode": "MX"
    },
    "geo": {
      "formatted_address": "Chihuahua, Mexico",
      "geometry": {
        "location": {"lat": 28.6329957, "lng": -106.0691004},
        "viewport": {
          "northeast": {"lat": 28.7843674, "lng": -105.95629},
          "southwest": {"lat": 28.5574951, "lng": -106.1729463}
        }
      },
      "icon": "https://maps.gstatic.com/mapfiles/place_api/icons/geocode-71.png",
      "name": "Chihuahua",
      "photos": [
        {
          "height": 540,
          "html_attributions": [
            "<a href=\"https://maps.google.com/maps/contrib/107194906143585744682\">vito parrino</a>"
          ],
          "photo_reference": "CmRaAAAA0eQRFTMZV5YewQE_2id-wY5vV9gdL0bhZEmc0b4e20XdlHVVmRDr1Rl9MnLjLMmCmP-7l5MZ2QXSUbWQ-TNL1T_0ZjaH6uq50Q41zg76be8MrLGCciZJZ5-wMHX68TRcEhCksM2p8Z6n1hh-JXbwCgLnGhTtwnBov7tkPkY8PNF81zkqg6TxcQ",
          "width": 720
        }
      ],
      "place_id": "ChIJM0BIXZ1E6oYRex3dBqen8bc",
      "reference": "ChIJM0BIXZ1E6oYRex3dBqen8bc",
      "types": ["locality", "political"]
    }
  },
  {
    "place": {
      "name": "Mexico City",
      "placeType": {"code": 7, "name": "Town"},
      "url": "http://where.yahooapis.com/v1/place/116545",
      "parentid": 23424900,
      "country": "Mexico",
      "woeid": 116545,
      "countryCode": "MX"
    },
    "geo": {
      "formatted_address": "Mexico City, CDMX, Mexico",
      "geometry": {
        "location": {"lat": 19.4326077, "lng": -99.133208},
        "viewport": {
          "northeast": {"lat": 19.5927571, "lng": -98.9604482},
          "southwest": {"lat": 19.1887101, "lng": -99.3267771}
        }
      },
      "icon": "https://maps.gstatic.com/mapfiles/place_api/icons/geocode-71.png",
      "name": "Mexico City",
      "photos": [
        {
          "height": 360,
          "html_attributions": [
            "<a href=\"https://maps.google.com/maps/contrib/111539180899698797897\">Fernando Arzate</a>"
          ],
          "photo_reference": "CmRaAAAAl4zJLqdxDLuwxEH-OdjyB_iRtOWRQaswnsonUNt6E1QahObV1YkL5yu5v3bsAHfk5rGgkVjqvNTGg1_29-WW5z0sOiiHe66NO14qSvyDbssMURkamjMpWbkMOmHrM-YeEhA2BOuVdNij7hWz_IX2WqUwGhSt-NMMhDkxVX1KU6zWKYkZ3pSHSQ",
          "width": 640
        }
      ],
      "place_id": "ChIJB3UJ2yYAzoURQeheJnYQBlQ",
      "reference": "ChIJB3UJ2yYAzoURQeheJnYQBlQ",
      "types": ["locality", "political"]
    }
  },
  {
    "place": {
      "name": "Ciudad Juarez",
      "placeType": {"code": 7, "name": "Town"},
      "url": "http://where.yahooapis.com/v1/place/116556",
      "parentid": 23424900,
      "country": "Mexico",
      "woeid": 116556,
      "countryCode": "MX"
    },
    "geo": {
      "formatted_address": "Ciudad Juárez, Chihuahua, Mexico",
      "geometry": {
        "location": {"lat": 31.6903638, "lng": -106.4245478},
        "viewport": {
          "northeast": {"lat": 31.7839854, "lng": -106.2940898},
          "southwest": {"lat": 31.5238034, "lng": -106.6037812}
        }
      },
      "icon": "https://maps.gstatic.com/mapfiles/place_api/icons/geocode-71.png",
      "name": "Ciudad Juárez",
      "photos": [
        {
          "height": 960,
          "html_attributions": [
            "<a href=\"https://maps.google.com/maps/contrib/104003052624673469727\">Jorge Ramirez</a>"
          ],
          "photo_reference": "CmRaAAAA7_7xf_3U79byxIubW0o3rMMzAWMt-uKFOUY0YWHzy3rWso4R1a_wcxH0uTvpdvz14qYhCjR4AeEtWzaFQt3wQzbdEIkc5cd0IDxr-Y5xm-hj918Xo-it20nbfnCxKH9_EhCj0yRzc4rsC-MRCUvEfhrJGhQfY3skaA2jIEbTfngq_4vI3R3QTQ",
          "width": 720
        }
      ],
      "place_id": "ChIJnTILPcte54YRdHmcVABhGQs",
      "reference": "ChIJnTILPcte54YRdHmcVABhGQs",
      "types": ["locality", "political"]
    }
  },
  {
    "place": {
      "name": "Nezahualcóyotl",
      "placeType": {"code": 7, "name": "Town"},
      "url": "http://where.yahooapis.com/v1/place/116564",
      "parentid": 23424900,
      "country": "Mexico",
      "woeid": 116564,
      "countryCode": "MX"
    },
    "geo": {
      "formatted_address": "Ciudad Nezahualcóyotl, State of Mexico, Mexico",
      "geometry": {
        "location": {"lat": 19.3994934, "lng": -98.9896643},
        "viewport": {
          "northeast": {"lat": 19.4987787, "lng": -98.96587430000001},
          "southwest": {"lat": 19.3662102, "lng": -99.0679912}
        }
      },
      "icon": "https://maps.gstatic.com/mapfiles/place_api/icons/geocode-71.png",
      "id": "d781be44ffcd0c351eac442580601147b58ea890",
      "name": "Ciudad Nezahualcóyotl",
      "photos": [
        {
          "height": 480,
          "html_attributions": [
            "<a href=\"https://maps.google.com/maps/contrib/116568414927295234897\">Julio FERNANDEZ CASANOVA</a>"
          ],
          "photo_reference": "CmRaAAAAgN6CjHBe5fx34nXL7TWE2a35CDASQKEveJHLlhW78L80wFpgHOEgbpn-hy0xQ2pRG_PFQ1ht8Dm0dMr84LQ_6f4u7P9UTW4QzbJTkClYRWOuP3crkp9Zw2CYBj5HMhhpEhDI8EPz10x_K2yOtq47RryKGhRW4wva9Paz_Z6e_hxDdN_XmNQeBg",
          "width": 720
        }
      ],
      "place_id": "ChIJSXRXRqn80YURSM_kDwcjHXk",
      "reference": "ChIJSXRXRqn80YURSM_kDwcjHXk",
      "types": ["locality", "political"]
    }
  },
  {
    "place": {
      "name": "Culiacán",
      "placeType": {"code": 7, "name": "Town"},
      "url": "http://where.yahooapis.com/v1/place/117994",
      "parentid": 23424900,
      "country": "Mexico",
      "woeid": 117994,
      "countryCode": "MX"
    },
    "geo": {
      "formatted_address": "Culiacán, Sinaloa, Mexico",
      "geometry": {
        "location": {"lat": 24.8090649, "lng": -107.3940117},
        "viewport": {
          "northeast": {"lat": 24.8775659, "lng": -107.327716},
          "southwest": {"lat": 24.7322684, "lng": -107.5189122}
        }
      },
      "icon": "https://maps.gstatic.com/mapfiles/place_api/icons/geocode-71.png",
      "id": "a481e38a00250ece1827f1178818edeb16bbbd43",
      "name": "Culiacán",
      "photos": [
        {
          "height": 3120,
          "html_attributions": [
            "<a href=\"https://maps.google.com/maps/contrib/117645572018804785833\">Maria Soriano</a>"
          ],
          "photo_reference": "CmRaAAAAjsE6T3PSRpMHpDvHTlLZzI7g9NfL5e7UYh4mb9htdNIelbneTTLD4JT2jPtTjpVXmhnNCLGIuqWipqJbFmw9zC67jjzDpqIB8y5XJ_zKWn-Ndxyx1jahlR-rnOLWpgthEhD9otF-5miA1qoVCTiwgYs_GhTbPeLuazQkMhZS4AnoshwxjxYO7Q",
          "width": 4160
        }
      ],
      "place_id": "ChIJj_lHd8fWvIYRzCMt6_Dr2Y0",
      "reference": "ChIJj_lHd8fWvIYRzCMt6_Dr2Y0",
      "types": ["locality", "political"]
    }
  },
  {
    "place": {
      "name": "Ecatepec de Morelos",
      "placeType": {"code": 7, "name": "Town"},
      "url": "http://where.yahooapis.com/v1/place/118466",
      "parentid": 23424900,
      "country": "Mexico",
      "woeid": 118466,
      "countryCode": "MX"
    },
    "geo": {
      "formatted_address": "Agricultura 4-A, Ecatepec de Morelos, Méx., Mexico",
      "geometry": {
        "location": {"lat": 19.6057728, "lng": -99.03651119999999},
        "viewport": {
          "northeast": {"lat": 19.6591484, "lng": -98.97393249999999},
          "southwest": {"lat": 19.4845696, "lng": -99.10147719999999}
        }
      },
      "icon": "https://maps.gstatic.com/mapfiles/place_api/icons/geocode-71.png",
      "id": "0c28b237e1cd69e4097f64ce6321bb1f73726f73",
      "name": "Ecatepec de Morelos",
      "photos": [
        {
          "height": 4160,
          "html_attributions": [
            "<a href=\"https://maps.google.com/maps/contrib/114070839709729657728\">natalie armstrong</a>"
          ],
          "photo_reference": "CmRaAAAApg3k-5j-cuxYbp165ZH9MjBQVG_ZJhOsHgMigEEyj2nGYxYVq1o4nqYXUMK4Tok3g1UulDGiJiNUJnzP7__tMiBQEYSKk7HKnGt4DqrC7FYT3DDSWaAwTQk_hJ0qoqsEEhBEa-il07M1_sqp50i19pHDGhRqqSRlchEk5ZRd01qnqEelWfYcZQ",
          "width": 3120
        }
      ],
      "place_id": "ChIJoXf3chzy0YURgGayQgpU1Ew",
      "reference": "ChIJoXf3chzy0YURgGayQgpU1Ew",
      "types": ["locality", "political"]
    }
  },
  {
    "place": {
      "name": "Guadalajara",
      "placeType": {"code": 7, "name": "Town"},
      "url": "http://where.yahooapis.com/v1/place/124162",
      "parentid": 23424900,
      "country": "Mexico",
      "woeid": 124162,
      "countryCode": "MX"
    },
    "geo": {
      "formatted_address": "Guadalajara, Jalisco, Mexico",
      "geometry": {
        "location": {"lat": 20.6596988, "lng": -103.3496092},
        "viewport": {
          "northeast": {"lat": 20.7438464, "lng": -103.2637617},
          "southwest": {"lat": 20.6037373, "lng": -103.4070646}
        }
      },
      "icon": "https://maps.gstatic.com/mapfiles/place_api/icons/geocode-71.png",
      "id": "b13627ffae26a2392ce093d221d6716bf349f856",
      "name": "Guadalajara",
      "photos": [
        {
          "height": 3120,
          "html_attributions": [
            "<a href=\"https://maps.google.com/maps/contrib/101964424908763700355\">Neo Díaz</a>"
          ],
          "photo_reference": "CmRaAAAAMzH42o6MU3WpWPYmGPsHLlAT64WhSYvrjT5pUwsNRKvWHvQet-J7-k8O77JBN31X4n0IqbjjzaHEgwc-x-WKvxbmEBrgQcbszBRISVZZcljrCf-ERbgB2DD7SaOPHSs6EhBy-z_iUikh2R5HypvrNAEbGhRPd9n5wWbm4vwa4c8qfrfUf8Ne4w",
          "width": 4160
        }
      ],
      "place_id": "ChIJm9MvtYyxKIQRUFeGvwKTPdY",
      "reference": "ChIJm9MvtYyxKIQRUFeGvwKTPdY",
      "types": ["locality", "political"]
    }
  },
  {
    "place": {
      "name": "Hermosillo",
      "placeType": {"code": 7, "name": "Town"},
      "url": "http://where.yahooapis.com/v1/place/124785",
      "parentid": 23424900,
      "country": "Mexico",
      "woeid": 124785,
      "countryCode": "MX"
    },
    "geo": {
      "formatted_address": "Hermosillo, Sonora, Mexico",
      "geometry": {
        "location": {"lat": 29.0729673, "lng": -110.9559192},
        "viewport": {
          "northeast": {"lat": 29.176726, "lng": -110.8932318},
          "southwest": {"lat": 28.9875843, "lng": -111.0847417}
        }
      },
      "icon": "https://maps.gstatic.com/mapfiles/place_api/icons/geocode-71.png",
      "id": "6b8639034bc5ea064470858c6f9060df6ff0f1e6",
      "name": "Hermosillo",
      "photos": [
        {
          "height": 720,
          "html_attributions": [
            "<a href=\"https://maps.google.com/maps/contrib/102465480419449051311\">Karhol Del Rio</a>"
          ],
          "photo_reference": "CmRaAAAAEBd20VhKCgzyArEa9Vpsllw6yxiTzmd_q7s4-8BSBZJhdI4aSxzl79fSHaofvAnKdndTuimt-ELWeA2qZJBtF-1a8OFnM-OG1bmEglMc-lmw72w9H7oA0ID1syHoOQQYEhCLOMwuGBcV9UXhzWdxHFTuGhRMqh2A2VzJ8n68zb6SQ1OJxwZUKQ",
          "width": 960
        }
      ],
      "place_id": "ChIJ5a7femiEzoYR-X-I6ZVTPbM",
      "reference": "ChIJ5a7femiEzoYR-X-I6ZVTPbM",
      "types": ["locality", "political"]
    }
  },
  {
    "place": {
      "name": "León",
      "placeType": {"code": 7, "name": "Town"},
      "url": "http://where.yahooapis.com/v1/place/131068",
      "parentid": 23424900,
      "country": "Mexico",
      "woeid": 131068,
      "countryCode": "MX"
    },
    "geo": {
      "formatted_address": "León, Guanajuato, Mexico",
      "geometry": {
        "location": {"lat": 21.1250077, "lng": -101.6859605},
        "viewport": {
          "northeast": {"lat": 21.2134227, "lng": -101.5617887},
          "southwest": {"lat": 21.0304049, "lng": -101.7702342}
        }
      },
      "icon": "https://maps.gstatic.com/mapfiles/place_api/icons/geocode-71.png",
      "id": "07834d61cb32a0fe1f35fc7a1d0b70d435afa4a9",
      "name": "León",
      "photos": [
        {
          "height": 2660,
          "html_attributions": [
            "<a href=\"https://maps.google.com/maps/contrib/110813000146397205063\">Alex Gamarro</a>"
          ],
          "photo_reference": "CmRaAAAACK-3Lhd9HnM89rw-my7znmjHtlcFASrBGxx3Ul3q6SOpUdSfNXxGPXRcOGUINQHOKpINISPcy3gwItO7Fq8YrTkq_-FWdy6jNOOG7JNKgXCwcV4g39SIZUtwrBMW7ZBbEhAxPTid9maqp-UveN3neF4SGhSKQF9ocYe8gBvmwCskE5cZRK7SKg",
          "width": 4730
        }
      ],
      "place_id": "ChIJIefm1v--K4QRJ0OlYeyVbWA",
      "reference": "ChIJIefm1v--K4QRJ0OlYeyVbWA",
      "types": ["locality", "political"]
    }
  },
  {
    "place": {
      "name": "Mérida",
      "placeType": {"code": 7, "name": "Town"},
      "url": "http://where.yahooapis.com/v1/place/133327",
      "parentid": 23424900,
      "country": "Mexico",
      "woeid": 133327,
      "countryCode": "MX"
    },
    "geo": {
      "formatted_address": "Mérida, Yucatan, Mexico",
      "geometry": {
        "location": {"lat": 20.9673702, "lng": -89.5925857},
        "viewport": {
          "northeast": {"lat": 21.0872143, "lng": -89.5430336},
          "southwest": {"lat": 20.8729168, "lng": -89.72280300000001}
        }
      },
      "icon": "https://maps.gstatic.com/mapfiles/place_api/icons/geocode-71.png",
      "id": "0b1b6b1cf80a780c357b001f13f4809a2f47a353",
      "name": "Mérida",
      "photos": [
        {
          "height": 3024,
          "html_attributions": [
            "<a href=\"https://maps.google.com/maps/contrib/106983296472001480471\">Asaf TE</a>"
          ],
          "photo_reference": "CmRaAAAAAbQKyRn_5QHbKYUI1ot4fGR_U2Mj9NJ6fQVsO0zjSeuh00cHfVKr7vhzdafAgHzcf5zIaCg2s3DY_H2n2Wd3rCIFNm-14i5axiV7n3TLmEvHJY_E2HdsZfReGHLvz4rzEhBKVVIHsrUhg1RmS48h6R87GhTFdXuBE17zK8XYhyWsdQqN2H0ufw",
          "width": 4032
        }
      ],
      "place_id": "ChIJFw1Fq1xxVo8RCeurFVcV_F0",
      "reference": "ChIJFw1Fq1xxVo8RCeurFVcV_F0",
      "types": ["locality", "political"]
    }
  },
  {
    "place": {
      "name": "Mexicali",
      "placeType": {"code": 7, "name": "Town"},
      "url": "http://where.yahooapis.com/v1/place/133475",
      "parentid": 23424900,
      "country": "Mexico",
      "woeid": 133475,
      "countryCode": "MX"
    },
    "geo": {
      "formatted_address": "Mexicali, Baja California, Mexico",
      "geometry": {
        "location": {"lat": 32.6245389, "lng": -115.4522623},
        "viewport": {
          "northeast": {"lat": 32.6723463, "lng": -115.3417969},
          "southwest": {"lat": 32.5551708, "lng": -115.5587851}
        }
      },
      "icon": "https://maps.gstatic.com/mapfiles/place_api/icons/geocode-71.png",
      "name": "Mexicali",
      "photos": [
        {
          "height": 1057,
          "html_attributions": [
            "<a href=\"https://maps.google.com/maps/contrib/105943212037154496946\">arcelia jimenez</a>"
          ],
          "photo_reference": "CmRaAAAAwRNvTEqLtK10aZk2f35pxw8-wCkVYqlTGW1YaRiq1PYsIWnLvhVgUvmKA-3ZYu2MhN10qI4eTSgSatBllFCfAERpKs_2WCHKWK32LigOGwDFk2QO9OJ_R_jB8kQxU8D3EhABzv8fsewX0XkptgUwgZtAGhRBTN7GhcLDT9lkEkqPla9nc7X5pQ",
          "width": 1125
        }
      ],
      "place_id": "ChIJ0913qAxw14ARmvXN5aAzANQ",
      "reference": "ChIJ0913qAxw14ARmvXN5aAzANQ",
      "types": ["locality", "political"]
    }
  },
  {
    "place": {
      "name": "Monterrey",
      "placeType": {"code": 7, "name": "Town"},
      "url": "http://where.yahooapis.com/v1/place/134047",
      "parentid": 23424900,
      "country": "Mexico",
      "woeid": 134047,
      "countryCode": "MX"
    },
    "geo": {
      "formatted_address": "Monterrey, Nuevo Leon, Mexico",
      "geometry": {
        "location": {"lat": 25.6866142, "lng": -100.3161126},
        "viewport": {
          "northeast": {"lat": 25.7974005, "lng": -100.1841891},
          "southwest": {"lat": 25.5001894, "lng": -100.4220032}
        }
      },
      "icon": "https://maps.gstatic.com/mapfiles/place_api/icons/geocode-71.png",
      "id": "14bda85a582ae6285fa4ec711d8a33fac369fb63",
      "name": "Monterrey",
      "photos": [
        {
          "height": 1264,
          "html_attributions": [
            "<a href=\"https://maps.google.com/maps/contrib/118442566469218818414\">Eduardo Castro</a>"
          ],
          "photo_reference": "CmRaAAAAgF7ikjQcKrZoVvBxnziVDRhzcRrAnNf4ljfaX-6kAJy01CaB4SgBm-ebhs6YQMcB-M3TpDzPH3-nrGDCx3HY3M7qtuhoiM-1dWOdBQ3Nas5RzvCHqCNox_kCfbTbtQ6UEhCO9BtsQZQ8mzyFt6eUoKB1GhTVzklAsX6l_l-UvlmofgPMsigSMw",
          "width": 2048
        }
      ],
      "place_id": "ChIJ9fg3tDGVYoYRlJjIasrT06M",
      "reference": "ChIJ9fg3tDGVYoYRlJjIasrT06M",
      "types": ["locality", "political"]
    }
  },
  {
    "place": {
      "name": "Morelia",
      "placeType": {"code": 7, "name": "Town"},
      "url": "http://where.yahooapis.com/v1/place/134091",
      "parentid": 23424900,
      "country": "Mexico",
      "woeid": 134091,
      "countryCode": "MX"
    },
    "geo": {
      "formatted_address": "Morelia, Michoacán, Mexico",
      "geometry": {
        "location": {"lat": 19.7059504, "lng": -101.1949825},
        "viewport": {
          "northeast": {"lat": 19.7577333, "lng": -101.1201535},
          "southwest": {"lat": 19.6495772, "lng": -101.2920944}
        }
      },
      "icon": "https://maps.gstatic.com/mapfiles/place_api/icons/geocode-71.png",
      "name": "Morelia",
      "photos": [
        {
          "height": 3264,
          "html_attributions": [
            "<a href=\"https://maps.google.com/maps/contrib/115064637303176205675\">Eduard Trujillo</a>"
          ],
          "photo_reference": "CmRaAAAAKMEIDyC8UgMeWtBcd95dd-gjOp9Y-v0ZPjIwzTk-HFHYcCuD2LCZRmPHUY2VG-WjYwQc9RVtIYUbZKZmB0RN4k6JmnDPyOmoDpZ8DSXLaz3gm7s1dBFvmSZNNwWbNHBgEhCqBw4dzwZ6A1HzFTdUFX7wGhTSwymQEj_aM-gHj8lMt7ZTNZPvdQ",
          "width": 1836
        }
      ],
      "place_id": "ChIJ46edsqILLYQRIIacZ3hpAQQ",
      "reference": "ChIJ46edsqILLYQRIIacZ3hpAQQ",
      "types": ["locality", "political"]
    }
  },
  {
    "place": {
      "name": "Naucalpan de Juárez",
      "placeType": {"code": 7, "name": "Town"},
      "url": "http://where.yahooapis.com/v1/place/134395",
      "parentid": 23424900,
      "country": "Mexico",
      "woeid": 134395,
      "countryCode": "MX"
    },
    "geo": {
      "formatted_address": "Naucalpan de Juárez, State of Mexico, Mexico",
      "geometry": {
        "location": {"lat": 19.4630841, "lng": -99.245302},
        "viewport": {
          "northeast": {"lat": 19.5275166, "lng": -99.2068249},
          "southwest": {"lat": 19.4120072, "lng": -99.3029739}
        }
      },
      "icon": "https://maps.gstatic.com/mapfiles/place_api/icons/geocode-71.png",
      "name": "Naucalpan de Juárez",
      "photos": [
        {
          "height": 3024,
          "html_attributions": [
            "<a href=\"https://maps.google.com/maps/contrib/100418987788795039382\">Miguel Ángel Espinoza</a>"
          ],
          "photo_reference": "CmRaAAAAaDhyHoWZyOaIDmaYomO7P_qHnYJI1uuxqBc-cBT9UhdKxlYAvk_GVA8M0Ze209-vtE9HJN7nfu4NiRufjTovZBKowk_eWXZ_Az-eogiWbG4VnZ_00DaKMcMJZcjvhbplEhCU-4jSYmu7imJWAwwgQ-0KGhRZAGypIU15CnUOZVN1kEoGXFn7sA",
          "width": 3024
        }
      ],
      "place_id": "ChIJ7y7PWEkB0oURn-ssxjwYNsA",
      "reference": "ChIJ7y7PWEkB0oURn-ssxjwYNsA",
      "types": ["locality", "political"]
    }
  },
  {
    "place": {
      "name": "Puebla",
      "placeType": {"code": 7, "name": "Town"},
      "url": "http://where.yahooapis.com/v1/place/137612",
      "parentid": 23424900,
      "country": "Mexico",
      "woeid": 137612,
      "countryCode": "MX"
    },
    "geo": {
      "formatted_address": "Morelia, Michoacán, Mexico",
      "geometry": {
        "location": {"lat": 19.7059504, "lng": -101.1949825},
        "viewport": {
          "northeast": {"lat": 19.7577333, "lng": -101.1201535},
          "southwest": {"lat": 19.6495772, "lng": -101.2920944}
        }
      },
      "icon": "https://maps.gstatic.com/mapfiles/place_api/icons/geocode-71.png",
      "name": "Morelia",
      "photos": [
        {
          "height": 3264,
          "html_attributions": [
            "<a href=\"https://maps.google.com/maps/contrib/115064637303176205675\">Eduard Trujillo</a>"
          ],
          "photo_reference": "CmRaAAAAZUOmUaHCTFoXvACmvd_rwzbSkMNapAxsoh3ueDfK_9_nnr3CXXbmAC6Kgn7l2mKMCJ4vzleHLc5-5kHP5puZQRSWMpx_ZxaCBFHA_AAN7D4ozvBWUG0G4ybwgRZIMW4HEhA7cjgwS8Yt-6MoREQ0911AGhQ0pnCkyYJjWM0Rh_2GDI2YRaTDOg",
          "width": 1836
        }
      ],
      "place_id": "ChIJ46edsqILLYQRIIacZ3hpAQQ",
      "reference": "ChIJ46edsqILLYQRIIacZ3hpAQQ",
      "types": ["locality", "political"]
    }
  },
  {
    "place": {
      "name": "Querétaro",
      "placeType": {"code": 7, "name": "Town"},
      "url": "http://where.yahooapis.com/v1/place/138045",
      "parentid": 23424900,
      "country": "Mexico",
      "woeid": 138045,
      "countryCode": "MX"
    },
    "geo": {
      "formatted_address": "Santiago de Querétaro, Qro., Mexico",
      "geometry": {
        "location": {"lat": 20.5887932, "lng": -100.3898881},
        "viewport": {
          "northeast": {"lat": 20.6839673, "lng": -100.3353875},
          "southwest": {"lat": 20.5403066, "lng": -100.4850469}
        }
      },
      "icon": "https://maps.gstatic.com/mapfiles/place_api/icons/geocode-71.png",
      "id": "bc6d07082c8b208d525cbe23b13c326296812792",
      "name": "Santiago de Querétaro",
      "photos": [
        {
          "height": 2592,
          "html_attributions": [
            "<a href=\"https://maps.google.com/maps/contrib/115047142346927073561\">Yoshihiro Ortiz</a>"
          ],
          "photo_reference": "CmRaAAAALE4vFt31VIT9nMdWx4j7_yA_btGq82ppD_YpGog2MrZDCxuEjVq3j0YBSlwhjSyhEqjm_WBja7VTNBuRiSnhQe9zbd5KbGcfayoNnBgBP1qHRizuyb1hyR72ZnideA0wEhCtgebXWPsDfmkpB1JFtVmyGhQk3pn60vhzuHReZqEhpkOzwY8Edw",
          "width": 3872
        }
      ],
      "place_id": "ChIJVZJb3I9b04URL4MbVqqUsJc",
      "reference": "ChIJVZJb3I9b04URL4MbVqqUsJc",
      "types": ["locality", "political"]
    }
  },
  {
    "place": {
      "name": "Saltillo",
      "placeType": {"code": 7, "name": "Town"},
      "url": "http://where.yahooapis.com/v1/place/141272",
      "parentid": 23424900,
      "country": "Mexico",
      "woeid": 141272,
      "countryCode": "MX"
    },
    "geo": {
      "formatted_address": "Saltillo, Coahuila, Mexico",
      "geometry": {
        "location": {"lat": 25.4383234, "lng": -100.973678},
        "viewport": {
          "northeast": {"lat": 25.5229178, "lng": -100.8933515},
          "southwest": {"lat": 25.33786, "lng": -101.0730956}
        }
      },
      "icon": "https://maps.gstatic.com/mapfiles/place_api/icons/geocode-71.png",
      "id": "ea320e055ab5d4d76c1e277424cf9043ff98eecf",
      "name": "Saltillo",
      "photos": [
        {
          "height": 2340,
          "html_attributions": [
            "<a href=\"https://maps.google.com/maps/contrib/116090282605802378832\">francisco vargas ramirez</a>"
          ],
          "photo_reference": "CmRaAAAAGf1NtazzagS9tqmq2keWPq3NiFL7Qr_LqtZpEgZEr6a8A6BkpqzSCsjiha8QroaQxR_An_9r3vWqdHDIkDRdQRFkcurUWoJ6kLN7Hh5YxeL4ykqUp4xCYS-X5BPhUULYEhD4zHvlv69Yhw-bZq9HMk5_GhSe2vbpoIvOoh_MWneRYmeolHzeQw",
          "width": 4160
        }
      ],
      "place_id": "ChIJ7xnfeJANiIYRwDBHeUGSUak",
      "reference": "ChIJ7xnfeJANiIYRwDBHeUGSUak",
      "types": ["locality", "political"]
    }
  },
  {
    "place": {
      "name": "San Luis Potosí",
      "placeType": {"code": 7, "name": "Town"},
      "url": "http://where.yahooapis.com/v1/place/144265",
      "parentid": 23424900,
      "country": "Mexico",
      "woeid": 144265,
      "countryCode": "MX"
    },
    "geo": {
      "formatted_address": "San Luis Potosí, San Luis Potosi, Mexico",
      "geometry": {
        "location": {"lat": 22.1564699, "lng": -100.9855409},
        "viewport": {
          "northeast": {"lat": 22.2186053, "lng": -100.8561164},
          "southwest": {"lat": 22.0068338, "lng": -101.0560226}
        }
      },
      "icon": "https://maps.gstatic.com/mapfiles/place_api/icons/geocode-71.png",
      "id": "300dde414baa3bd8df9d0276f015b7beeecaf958",
      "name": "San Luis Potosí",
      "photos": [
        {
          "height": 367,
          "html_attributions": [
            "<a href=\"https://maps.google.com/maps/contrib/107194906143585744682\">vito parrino</a>"
          ],
          "photo_reference": "CmRaAAAATNdNXlkZq5I1iDy-W_NKU06G4THoFiCy0OQJaq2L-ZfPTTJ0lYRYhDN6UR6I8N-xPi-5SbzysMlsgLZ6Vw6j6xrMRPk0Qw3s6BKrAiJoIad0jIW46Ie90H9pLGpEQpjfEhCYmPk65eEBlE2l3Pf_61ozGhR9_bzyfCTsB2GJlEMyjQsQoyhR4A",
          "width": 552
        }
      ],
      "place_id": "ChIJefusBQCiKoQRV4Lhrynu0g4",
      "reference": "ChIJefusBQCiKoQRV4Lhrynu0g4",
      "types": ["locality", "political"]
    }
  },
  {
    "place": {
      "name": "Tijuana",
      "placeType": {"code": 7, "name": "Town"},
      "url": "http://where.yahooapis.com/v1/place/149361",
      "parentid": 23424900,
      "country": "Mexico",
      "woeid": 149361,
      "countryCode": "MX"
    },
    "geo": {
      "formatted_address": "Tijuana, Baja California, Mexico",
      "geometry": {
        "location": {"lat": 32.5149469, "lng": -117.0382471},
        "viewport": {
          "northeast": {"lat": 32.5556323, "lng": -116.7713995},
          "southwest": {"lat": 32.4378864, "lng": -117.1242144}
        }
      },
      "icon": "https://maps.gstatic.com/mapfiles/place_api/icons/geocode-71.png",
      "id": "58cf06fa52eec6920bcb3260dc4917824ddaf27f",
      "name": "Tijuana",
      "photos": [
        {
          "height": 488,
          "html_attributions": [
            "<a href=\"https://maps.google.com/maps/contrib/113482343908983147932\">Randolfo Santos</a>"
          ],
          "photo_reference": "CmRaAAAApp0E1M-3mBzQHxFwRYJ7x7yBIzKw92CfWYFYa-rN4_sZLLFWSZE2t4ww6E-us-sViuYxyFThwRO9_ErsoRZUoujt7g5TLCp_9nWSTwHHHI_u1f5xyXDyTmmOAMkblIOWEhAN67yJUg1lf990FCmQVmpzGhS9S24poxNS1LLRZEve-UKQkFgtqQ",
          "width": 736
        }
      ],
      "place_id": "ChIJ03tYJgI52YARViTmpK9LchQ",
      "reference": "ChIJ03tYJgI52YARViTmpK9LchQ",
      "types": ["locality", "political"]
    }
  },
  {
    "place": {
      "name": "Toluca",
      "placeType": {"code": 7, "name": "Town"},
      "url": "http://where.yahooapis.com/v1/place/149769",
      "parentid": 23424900,
      "country": "Mexico",
      "woeid": 149769,
      "countryCode": "MX"
    },
    "geo": {
      "formatted_address": "Toluca, State of Mexico, Mexico",
      "geometry": {
        "location": {"lat": 19.2826098, "lng": -99.6556653},
        "viewport": {
          "northeast": {"lat": 19.345726, "lng": -99.5559416},
          "southwest": {"lat": 19.2424987, "lng": -99.7064855}
        }
      },
      "icon": "https://maps.gstatic.com/mapfiles/place_api/icons/geocode-71.png",
      "name": "Toluca",
      "photos": [
        {
          "height": 1349,
          "html_attributions": [
            "<a href=\"https://maps.google.com/maps/contrib/117995767956452668049\">A Google User</a>"
          ],
          "photo_reference": "CmRaAAAAdaMxUntVQ_u4HjlVFZ4MKpVxQ7GgtHHgHU_VIuKi9fNqyhQEW5FqbvCuLxQ4G4aiQJkIjK7HAL7pFNdUy9pjZsYzzIwsEZ3phIuCYTXizJvJxa49R0Vme9pyVjKSRVQSEhChz0LTybsTjPDf-GsfcYHoGhQV42xcXuSOR9s74KfNDMARRbgdSw",
          "width": 1080
        }
      ],
      "place_id": "ChIJuetQKomJzYURxAgCVdVKP60",
      "reference": "ChIJuetQKomJzYURxAgCVdVKP60",
      "types": ["locality", "political"]
    }
  },
  {
    "place": {
      "name": "Zapopan",
      "placeType": {"code": 7, "name": "Town"},
      "url": "http://where.yahooapis.com/v1/place/151582",
      "parentid": 23424900,
      "country": "Mexico",
      "woeid": 151582,
      "countryCode": "MX"
    },
    "geo": {
      "formatted_address": "Zapopan, Jalisco, Mexico",
      "geometry": {
        "location": {"lat": 20.6719563, "lng": -103.416501},
        "viewport": {
          "northeast": {"lat": 20.7810786, "lng": -103.3218342},
          "southwest": {"lat": 20.5847883, "lng": -103.486128}
        }
      },
      "icon": "https://maps.gstatic.com/mapfiles/place_api/icons/geocode-71.png",
      "name": "Zapopan",
      "photos": [
        {
          "height": 3120,
          "html_attributions": [
            "<a href=\"https://maps.google.com/maps/contrib/101856438020684153788\">el mosh mosh</a>"
          ],
          "photo_reference": "CmRaAAAAkpem5_isS2jxnyJano_olAwIEeKxRVQTFdZhrWwVDQh-75gEXXTrNH3Ryhq9xkqRKVjBPyV8phVmCsZAzCfucsWfvbQ2lfyqvUYycfdC75mqva7QdNCm31WS9WKX4tZ2EhCu9Xm_TkILBKI_gYpkoENkGhSWJRbt5QwXvob2ujoqOUuuW-pYhg",
          "width": 4160
        }
      ],
      "place_id": "ChIJE0xwqWGuKIQRrALQftSl2K8",
      "reference": "ChIJE0xwqWGuKIQRrALQftSl2K8",
      "types": ["locality", "political"]
    }
  },
  {
    "place": {
      "name": "Mendoza",
      "placeType": {"code": 7, "name": "Town"},
      "url": "http://where.yahooapis.com/v1/place/332471",
      "parentid": 23424747,
      "country": "Argentina",
      "woeid": 332471,
      "countryCode": "AR"
    },
    "geo": {
      "formatted_address": "Mendoza, Capital Department, Mendoza Province, Argentina",
      "geometry": {
        "location": {"lat": -32.8894587, "lng": -68.8458386},
        "viewport": {
          "northeast": {"lat": -32.86214, "lng": -68.81727000000001},
          "southwest": {"lat": -32.9045304, "lng": -68.8997682}
        }
      },
      "icon": "https://maps.gstatic.com/mapfiles/place_api/icons/geocode-71.png",
      "name": "Mendoza",
      "photos": [
        {
          "height": 707,
          "html_attributions": [
            "<a href=\"https://maps.google.com/maps/contrib/101228293043173062062\">A Google User</a>"
          ],
          "photo_reference": "CmRaAAAABl7stqIcF4Un2cYbHfs8s7hcGHee8JB5NaUjv-XpLgHIb0_ihCJDLFFmH3LmerF9pnkTcnRbYzWPggfpqLk2eF7PVRzo09p_LLxCGy2cK6pP9oQ_uX3ekXd15JqUrd1nEhA-X_y9v_XI_EsoDQodarRhGhQHrxWr4jPevSfMLvi-3wIpyo0sTA",
          "width": 480
        }
      ],
      "place_id": "ChIJv3lRxD4JfpYROvoO0vZ4WiA",
      "reference": "ChIJv3lRxD4JfpYROvoO0vZ4WiA",
      "types": ["locality", "political"]
    }
  },
  {
    "place": {
      "name": "Santiago",
      "placeType": {"code": 7, "name": "Town"},
      "url": "http://where.yahooapis.com/v1/place/349859",
      "parentid": 23424782,
      "country": "Chile",
      "woeid": 349859,
      "countryCode": "CL"
    },
    "geo": {
      "formatted_address": "Santiago, Santiago Metropolitan Region, Chile",
      "geometry": {
        "location": {"lat": -33.4488897, "lng": -70.6692655},
        "viewport": {
          "northeast": {"lat": -33.2713874, "lng": -70.4267807},
          "southwest": {"lat": -33.6741885, "lng": -70.8328819}
        }
      },
      "icon": "https://maps.gstatic.com/mapfiles/place_api/icons/geocode-71.png",
      "id": "e623b0758acaf7a64f1ac2d076cd29d3d19e327c",
      "name": "Santiago",
      "photos": [
        {
          "height": 2448,
          "html_attributions": [
            "<a href=\"https://maps.google.com/maps/contrib/105821303754930433046\">Wesley Ferreira</a>"
          ],
          "photo_reference": "CmRaAAAAoMD3e5nZIJ879NtTnNoqYOuX0c65_C045JwXUD1jW_vrcvPfPgAck27bmfg0CTgw_u5br0eGYianZsxRGoGWjJVr_L3DO55Z4F3RvzTuHsAvwDbjuAOIQ3RlbuawANYwEhB3ijtN--777hNLyB5m3IvYGhTJgjmseb4UyzQ5iEiVCrLuCZ5OAg",
          "width": 3264
        }
      ],
      "place_id": "ChIJL68lBEHFYpYRMQkPQDzVdYQ",
      "reference": "ChIJL68lBEHFYpYRMQkPQDzVdYQ",
      "types": ["colloquial_area", "locality", "political"]
    }
  },
  {
    "place": {
      "name": "Concepcion",
      "placeType": {"code": 7, "name": "Town"},
      "url": "http://where.yahooapis.com/v1/place/349860",
      "parentid": 23424782,
      "country": "Chile",
      "woeid": 349860,
      "countryCode": "CL"
    },
    "geo": {
      "formatted_address": "Concepción, Bio Bio, Chile",
      "geometry": {
        "location": {"lat": -36.8201352, "lng": -73.0443904},
        "viewport": {
          "northeast": {"lat": -36.76354250000001, "lng": -72.98195799999999},
          "southwest": {"lat": -36.8885417, "lng": -73.0841332}
        }
      },
      "icon": "https://maps.gstatic.com/mapfiles/place_api/icons/geocode-71.png",
      "id": "a3c4a5cedc07774e58419427bf6175fc8b1b3815",
      "name": "Concepción",
      "photos": [
        {
          "height": 366,
          "html_attributions": [
            "<a href=\"https://maps.google.com/maps/contrib/107736527195761321732\">El Xavier López</a>"
          ],
          "photo_reference": "CmRaAAAAbuSrdKEAX-HbAae3HPkHChGbBLT5YDt7V3W0JwXIlt1zRBY5SuIkWw216Lm4xFxneMgxT1NWA-ayaa05ZG-e2O-B7w9nzUZ2wBbA_eirg6n_VE8FZPAauaeWboD2oBWEEhAuv9-_lrvSg-6UyOg-hG7CGhRo2tZHz2KYQyFzYz7zqhiNbaYIuQ",
          "width": 640
        }
      ],
      "place_id": "ChIJO8a70s21aZYRmCYhUrc3y0Q",
      "reference": "ChIJO8a70s21aZYRmCYhUrc3y0Q",
      "types": ["locality", "political"]
    }
  },
  {
    "place": {
      "name": "Valparaiso",
      "placeType": {"code": 7, "name": "Town"},
      "url": "http://where.yahooapis.com/v1/place/349861",
      "parentid": 23424782,
      "country": "Chile",
      "woeid": 349861,
      "countryCode": "CL"
    },
    "geo": {
      "formatted_address": "Valparaíso, Chile",
      "geometry": {
        "location": {"lat": -33.047238, "lng": -71.61268849999999},
        "viewport": {
          "northeast": {"lat": -33.0178165, "lng": -71.5597684},
          "southwest": {"lat": -33.0835991, "lng": -71.6623287}
        }
      },
      "icon": "https://maps.gstatic.com/mapfiles/place_api/icons/geocode-71.png",
      "id": "21d9332a0a300b2ea7d0902e9ec1b85e2330d335",
      "name": "Valparaíso",
      "photos": [
        {
          "height": 1440,
          "html_attributions": [
            "<a href=\"https://maps.google.com/maps/contrib/106428567483804048138\">Sylvia Beatriz</a>"
          ],
          "photo_reference": "CmRaAAAAM8oA58qJjjzReX9oUDOERdnI9HVYuxG1h4rZFePqJZXf4FQZbDHoVfS3VrUBV3ylTPL8M9_cUk2lnjzptbXUQIoOLjUXTSzvCTQ2FG6DcilmHoKI7P11dd7uYFp8m8SQEhAS7ratoDJhktcHG7OoE5_vGhSclnR7Y5faxs2Mh2qy2-8HJD5JBw",
          "width": 2452
        }
      ],
      "place_id": "ChIJx84g3uPdiZYRdpvhv4w6Cus",
      "reference": "ChIJx84g3uPdiZYRdpvhv4w6Cus",
      "types": ["locality", "political"]
    }
  },
  {
    "place": {
      "name": "Bogotá",
      "placeType": {"code": 7, "name": "Town"},
      "url": "http://where.yahooapis.com/v1/place/368148",
      "parentid": 23424787,
      "country": "Colombia",
      "woeid": 368148,
      "countryCode": "CO"
    },
    "geo": {
      "formatted_address": "Bogota, Colombia",
      "geometry": {
        "location": {"lat": 4.710988599999999, "lng": -74.072092},
        "viewport": {
          "northeast": {"lat": 4.8371311, "lng": -73.99197699999999},
          "southwest": {"lat": 4.459464, "lng": -74.223637}
        }
      },
      "icon": "https://maps.gstatic.com/mapfiles/place_api/icons/geocode-71.png",
      "name": "Bogota",
      "photos": [
        {
          "height": 3120,
          "html_attributions": [
            "<a href=\"https://maps.google.com/maps/contrib/100550729599064456308\">Hernan Martinez</a>"
          ],
          "photo_reference": "CmRaAAAAQEnjiLU1j6JEyykml_vbHuPoIa3jv-imMQy09prur8jrUiuxuhR46h1jG3MX6qc1jROuHC8n6KBA07jArxO_pRPUK5_8qDLbjDEbSg9z7ugqwBNDhctlW8nDQBVhU3INEhBt2OEdjomMYyCGCJpeZI67GhRYsF6APUVhLw80ZXvuIOWe4wmY3A",
          "width": 4160
        }
      ],
      "place_id": "ChIJKcumLf2bP44RFDmjIFVjnSM",
      "reference": "ChIJKcumLf2bP44RFDmjIFVjnSM",
      "types": ["locality", "political"]
    }
  },
  {
    "place": {
      "name": "Cali",
      "placeType": {"code": 7, "name": "Town"},
      "url": "http://where.yahooapis.com/v1/place/368149",
      "parentid": 23424787,
      "country": "Colombia",
      "woeid": 368149,
      "countryCode": "CO"
    },
    "geo": {
      "formatted_address": "Cali, Valle del Cauca, Colombia",
      "geometry": {
        "location": {"lat": 3.4516467, "lng": -76.5319854},
        "viewport": {
          "northeast": {"lat": 3.505554, "lng": -76.46082489999999},
          "southwest": {"lat": 3.2845748, "lng": -76.590503}
        }
      },
      "icon": "https://maps.gstatic.com/mapfiles/place_api/icons/geocode-71.png",
      "name": "Cali",
      "photos": [
        {
          "height": 429,
          "html_attributions": [
            "<a href=\"https://maps.google.com/maps/contrib/109483112926229979557\">Alberto Curia</a>"
          ],
          "photo_reference": "CmRaAAAAiQYVTqHGBnG_VaNULmfSsaESbU4P7QmBAks0c-M6mqwXYnpN2flodnhogdRERiyh-1jTwanT7amf_QKJyOl9yDuQEVHYnvoWjzxBBwF2_4qD-drjLJPCyMaoi5_SzBdREhAqb4thqKBwCV-81us4C-uvGhS0TRdW7ExDmxjmDOhw5JpKMhbt0A",
          "width": 715
        }
      ],
      "place_id": "ChIJ8bNLzPCmMI4RaGGuUum1Dx8",
      "reference": "ChIJ8bNLzPCmMI4RaGGuUum1Dx8",
      "types": ["locality", "political"]
    }
  },
  {
    "place": {
      "name": "Medellín",
      "placeType": {"code": 7, "name": "Town"},
      "url": "http://where.yahooapis.com/v1/place/368150",
      "parentid": 23424787,
      "country": "Colombia",
      "woeid": 368150,
      "countryCode": "CO"
    },
    "geo": {
      "formatted_address": "Medellín, Medellin, Antioquia, Colombia",
      "geometry": {
        "location": {"lat": 6.2476376, "lng": -75.56581530000001},
        "viewport": {
          "northeast": {"lat": 6.31281, "lng": -75.521507},
          "southwest": {"lat": 6.1755969, "lng": -75.64091599999999}
        }
      },
      "icon": "https://maps.gstatic.com/mapfiles/place_api/icons/geocode-71.png",
      "id": "2beb80836c14b495e8959d2c0ecf2c482ab51600",
      "name": "Medellín",
      "photos": [
        {
          "height": 476,
          "html_attributions": [
            "<a href=\"https://maps.google.com/maps/contrib/107682287077281633972\">Lukmic Reloaded</a>"
          ],
          "photo_reference": "CmRaAAAAZcbKUuR3xU2WmHft0KaGSyY17yx5wRe9aDoktNdCVR5QvPqkOrk7vmFviDhvLdLWM9R6RUgl-5ukx5tMPXrwyrFHVhKiorew92LWxa3c3rd4_g0IjfFDP_IDny2dYoWhEhD_9wk9EvG4JdeH4VZpypCXGhTqigazcF4Ash6F2jwbEF3-kBZRkQ",
          "width": 720
        }
      ],
      "place_id": "ChIJBa0PuN8oRI4RVju1x_x8E0I",
      "reference": "ChIJBa0PuN8oRI4RVju1x_x8E0I",
      "types": ["locality", "political"]
    }
  },
  {
    "place": {
      "name": "Barranquilla",
      "placeType": {"code": 7, "name": "Town"},
      "url": "http://where.yahooapis.com/v1/place/368151",
      "parentid": 23424787,
      "country": "Colombia",
      "woeid": 368151,
      "countryCode": "CO"
    },
    "geo": {
      "formatted_address": "Barranquilla, Atlantico, Colombia",
      "geometry": {
        "location": {"lat": 11.0041072, "lng": -74.80698129999999},
        "viewport": {
          "northeast": {"lat": 11.0463319, "lng": -74.7585391},
          "southwest": {"lat": 10.921292, "lng": -74.877496}
        }
      },
      "icon": "https://maps.gstatic.com/mapfiles/place_api/icons/geocode-71.png",
      "id": "5d82765588fbbbc6f0eac9f4ab4d1c1672758ede",
      "name": "Barranquilla",
      "photos": [
        {
          "height": 4160,
          "html_attributions": [
            "<a href=\"https://maps.google.com/maps/contrib/113882354949163681150\">jose landero bolaño</a>"
          ],
          "photo_reference": "CmRaAAAA2U_ITG6og45DFpFgBQ15V5qK2eVgS1A5WOh53WksGHwFnUpIJgpINtFu__3ACInwX8s3sTvmQJGm1iaxZI4f9XBhrEUp6qbW7z9r_UOy_Nr8wfkQX0LFUVWqrFNZLKziEhDnWAeQfK3i6qGYJgp7mj9AGhRr39oQvnOfjn_V9qsU_QA2jyMY3A",
          "width": 3120
        }
      ],
      "place_id": "ChIJBeYq0UQt9I4Rshe5gUWEMyY",
      "reference": "ChIJBeYq0UQt9I4Rshe5gUWEMyY",
      "types": ["locality", "political"]
    }
  },
  {
    "place": {
      "name": "Quito",
      "placeType": {"code": 7, "name": "Town"},
      "url": "http://where.yahooapis.com/v1/place/375732",
      "parentid": 23424801,
      "country": "Ecuador",
      "woeid": 375732,
      "countryCode": "EC"
    },
    "geo": {
      "formatted_address": "Quito, Ecuador",
      "geometry": {
        "location": {"lat": -0.1806532, "lng": -78.4678382},
        "viewport": {
          "northeast": {"lat": 0.0219727, "lng": -78.2741547},
          "southwest": {"lat": -0.3951614, "lng": -78.58692169999999}
        }
      },
      "icon": "https://maps.gstatic.com/mapfiles/place_api/icons/geocode-71.png",
      "name": "Quito",
      "photos": [
        {
          "height": 1065,
          "html_attributions": [
            "<a href=\"https://maps.google.com/maps/contrib/102226610971802896803\">Ante Bing</a>"
          ],
          "photo_reference": "CmRaAAAAwgyHf3NkmX6zFxPwkVaAnedEDgb2mIGNCjGwayaM1hjyB_zMB1Q7X2MHPr8IjElikcjAU2UpiE6VcFUPba_VcNVFgkZi9DYdIjLIFx_VtidBWvE8h2X0GGKQceQ9QdPFEhBLyShEj38C0KNc6NRnzYpSGhTyHsBEbbdRXRgKmHy1jeCNyBi73Q",
          "width": 1597
        }
      ],
      "place_id": "ChIJn3xCAkCa1ZERclXvWOGRuUQ",
      "reference": "ChIJn3xCAkCa1ZERclXvWOGRuUQ",
      "types": ["locality", "political"]
    }
  },
  {
    "place": {
      "name": "Guayaquil",
      "placeType": {"code": 7, "name": "Town"},
      "url": "http://where.yahooapis.com/v1/place/375733",
      "parentid": 23424801,
      "country": "Ecuador",
      "woeid": 375733,
      "countryCode": "EC"
    },
    "geo": {
      "formatted_address": "Guayaquil, Ecuador",
      "geometry": {
        "location": {"lat": -2.1894128, "lng": -79.8890662},
        "viewport": {
          "northeast": {"lat": -2.0176044, "lng": -79.8608182},
          "southwest": {"lat": -2.2873981, "lng": -80.0993834}
        }
      },
      "icon": "https://maps.gstatic.com/mapfiles/place_api/icons/geocode-71.png",
      "id": "b11821e2307b13d9b4af2318205ff23b2fbc4514",
      "name": "Guayaquil",
      "photos": [
        {
          "height": 3072,
          "html_attributions": [
            "<a href=\"https://maps.google.com/maps/contrib/101066419383778052798\">A Google User</a>"
          ],
          "photo_reference": "CmRaAAAAHFdqgg67baRY5L54WdfDWhHcCYeAeS27qj2jwbanO95cJaTk0MhM1UskxodNC4BdGP355gD7vTHhwpd2r8ABwP0L_wCIQPV3f9rYaGuyaLjuSefi7vsqI6FboAOFVqvEEhAQKGodVAxUJ609eA7YJ8CjGhQVspT6S7CtOfKV0zEp6dtoU-IzZQ",
          "width": 4096
        }
      ],
      "place_id": "ChIJX4BV6MsTLZARc6T89JKkFYA",
      "reference": "ChIJX4BV6MsTLZARc6T89JKkFYA",
      "types": ["locality", "political"]
    }
  },
  {
    "place": {
      "name": "Caracas",
      "placeType": {"code": 7, "name": "Town"},
      "url": "http://where.yahooapis.com/v1/place/395269",
      "parentid": 23424982,
      "country": "Venezuela",
      "woeid": 395269,
      "countryCode": "VE"
    },
    "geo": {
      "formatted_address": "Caracas, Capital District, Venezuela",
      "geometry": {
        "location": {"lat": 10.4805937, "lng": -66.90360629999999},
        "viewport": {
          "northeast": {"lat": 10.5401335, "lng": -66.71795329999999},
          "southwest": {"lat": 10.39665, "lng": -67.0627784}
        }
      },
      "icon": "https://maps.gstatic.com/mapfiles/place_api/icons/geocode-71.png",
      "id": "36e1736d796adabc170cde7da423abc6e3b8b6be",
      "name": "Caracas",
      "photos": [
        {
          "height": 1536,
          "html_attributions": [
            "<a href=\"https://maps.google.com/maps/contrib/110540776573755427718\">Nestor Ocando</a>"
          ],
          "photo_reference": "CmRaAAAALCZRxP8HqSj-jeLDnemq1cqIUVP0hdEtI615f9aeZ5CE5Kf_rWbBuEUHFmjchAJ-cZ4XMrfuuwXLuwdONI0tDW8rLgcKcngf06xEWxBg_uIzshLnq0HYbveEB8gCMhEeEhBxwNyHFnTXtWy_IoCOB2uOGhS9NuoxiYVoV_nC43zrMU3iNOgBmA",
          "width": 2048
        }
      ],
      "place_id": "ChIJB0iCza1YKowRg4SZCq4u3ZM",
      "reference": "ChIJB0iCza1YKowRg4SZCq4u3ZM",
      "types": ["locality", "political"]
    }
  },
  {
    "place": {
      "name": "Maracaibo",
      "placeType": {"code": 7, "name": "Town"},
      "url": "http://where.yahooapis.com/v1/place/395270",
      "parentid": 23424982,
      "country": "Venezuela",
      "woeid": 395270,
      "countryCode": "VE"
    },
    "geo": {
      "formatted_address": "Maracaibo, Zulia, Venezuela",
      "geometry": {
        "location": {"lat": 10.642707, "lng": -71.6125366},
        "viewport": {
          "northeast": {"lat": 10.7645085, "lng": -71.5819216},
          "southwest": {"lat": 10.5025809, "lng": -71.771965}
        }
      },
      "icon": "https://maps.gstatic.com/mapfiles/place_api/icons/geocode-71.png",
      "id": "2975e7b602ff396e1eed65bc3f5852bb0ba988d5",
      "name": "Maracaibo",
      "photos": [
        {
          "height": 477,
          "html_attributions": [
            "<a href=\"https://maps.google.com/maps/contrib/107194906143585744682\">vito parrino</a>"
          ],
          "photo_reference": "CmRaAAAAMMKftHYwTX-ZZQo9aokviJaMVTGz46FiUE157pGPe7553CdC0-SQ_eYHW1fnkdZdZK6HSmGNQz40ukJRwtBqTPelHMcLisEFhSZAiZ7NXXQYYiK5Us-SS6ZOdp9GD5lYEhB6QuT-n4Tn8VSQxhg3NRQ3GhRPnCuTGwGy0teqP5_AOhyUWO2tlA",
          "width": 720
        }
      ],
      "place_id": "ChIJJdZbeo6ZiY4RS-eN6uAECc4",
      "reference": "ChIJJdZbeo6ZiY4RS-eN6uAECc4",
      "types": ["locality", "political"]
    }
  },
  {
    "place": {
      "name": "Maracay",
      "placeType": {"code": 7, "name": "Town"},
      "url": "http://where.yahooapis.com/v1/place/395271",
      "parentid": 23424982,
      "country": "Venezuela",
      "woeid": 395271,
      "countryCode": "VE"
    },
    "geo": {
      "formatted_address": "Maracay, Aragua, Venezuela",
      "geometry": {
        "location": {"lat": 10.2441931, "lng": -67.60661640000001},
        "viewport": {
          "northeast": {"lat": 10.3294132, "lng": -67.5422287},
          "southwest": {"lat": 10.2049546, "lng": -67.66859219999999}
        }
      },
      "icon": "https://maps.gstatic.com/mapfiles/place_api/icons/geocode-71.png",
      "id": "2ebbc9b477d221801dd3b2efa51fa9ce75179322",
      "name": "Maracay",
      "photos": [
        {
          "height": 686,
          "html_attributions": [
            "<a href=\"https://maps.google.com/maps/contrib/105042156368072100662\">Carlos Ramirez</a>"
          ],
          "photo_reference": "CmRaAAAA8WgFaK9OIEugA2vpZgNUXDNj-l2HNzCg_VkM3GIyh7-xniMamMz9M5eSHdRotYGaAA1zyGpGjj_YvHyR19fY4YaXUB1E1IrbfbMAv2M91cZ5BzDvSUdkbGTGJiosrmsxEhA8s9A1-4pOOHXIFFq_mDwAGhQ60d6XzaGn78mOcKRNuiaE5ycF0g",
          "width": 1024
        }
      ],
      "place_id": "ChIJh_53k5g8gI4RdFuurU1S_7U",
      "reference": "ChIJh_53k5g8gI4RdFuurU1S_7U",
      "types": ["locality", "political"]
    }
  },
  {
    "place": {
      "name": "Valencia",
      "placeType": {"code": 7, "name": "Town"},
      "url": "http://where.yahooapis.com/v1/place/395272",
      "parentid": 23424982,
      "country": "Venezuela",
      "woeid": 395272,
      "countryCode": "VE"
    },
    "geo": {
      "formatted_address": "Valencia, Carabobo, Venezuela",
      "geometry": {
        "location": {"lat": 10.1579312, "lng": -67.9972104},
        "viewport": {
          "northeast": {"lat": 10.2339878, "lng": -67.9139829},
          "southwest": {"lat": 10.111176, "lng": -68.0744649}
        }
      },
      "icon": "https://maps.gstatic.com/mapfiles/place_api/icons/geocode-71.png",
      "id": "0c168f8e360615ad4ca48cde0604bc94063fda80",
      "name": "Valencia",
      "photos": [
        {
          "height": 1644,
          "html_attributions": [
            "<a href=\"https://maps.google.com/maps/contrib/102805430846889642582\">Domenico Lamparelli</a>"
          ],
          "photo_reference": "CmRaAAAAc4paI__efOiU38w6GKnSrXU0NJSpgru8VKpwokt6cFy2Vk-6ilgPOIh4ubBGSLxei48SQ1dChdiapFc0691pFUpiNG6KY0BSC1Q7fTSItY70pE1kxPk13KBN1UoHbh9xEhDhFPONzmDkHs8n9itIOCREGhRbbNG3usx-M4gQMWv2N2TGh8XYXA",
          "width": 1998
        }
      ],
      "place_id": "ChIJj5JhzotngI4RckLDqO7peJ8",
      "reference": "ChIJj5JhzotngI4RckLDqO7peJ8",
      "types": ["locality", "political"]
    }
  },
  {
    "place": {
      "name": "Barcelona",
      "placeType": {"code": 7, "name": "Town"},
      "url": "http://where.yahooapis.com/v1/place/395273",
      "parentid": 23424982,
      "country": "Venezuela",
      "woeid": 395273,
      "countryCode": "VE"
    },
    "geo": {
      "formatted_address": "Barcelona, Anzoategui, Venezuela",
      "geometry": {
        "location": {"lat": 10.1445691, "lng": -64.67768},
        "viewport": {
          "northeast": {"lat": 10.182111, "lng": -64.6104653},
          "southwest": {"lat": 10.0406982, "lng": -64.71680359999999}
        }
      },
      "icon": "https://maps.gstatic.com/mapfiles/place_api/icons/geocode-71.png",
      "id": "3193ce346d59bec495bfe732fb96bdfc19e99bf3",
      "name": "Barcelona",
      "photos": [
        {
          "height": 539,
          "html_attributions": [
            "<a href=\"https://maps.google.com/maps/contrib/101749426054788793516\">Pirozzi JA</a>"
          ],
          "photo_reference": "CmRZAAAAShv90_tTLtwdP1o7j9W_dHCo-jihEn_ojU_Y5-jrDMjeEQh6csoz4pln4S2okMrLxQMprbY7WtbQ45ricB0I1acBFzw9dAFClk0VeypMohKGfvuyT9R8L4372WWmaOzGEhB9kdJc2PNx24aTlmqbM2C5GhTBSo9fchKO2Gs9dNRU34-2ewnTiA",
          "width": 960
        }
      ],
      "place_id": "ChIJbzBx_z5yLYwRdZ6I7zy0_iI",
      "reference": "ChIJbzBx_z5yLYwRdZ6I7zy0_iI",
      "types": ["locality", "political"]
    }
  },